[
  {
    "Type": "FoodBank",
    "Name": "Harvesters the Community Food Network",
    "Phone": "816-929-3000",
    "Address": "3801 Topping Ave",
    "City": "Kansas City",
    "State": "MO",
    "Zipcode": "64129",
    "lat": "39.0551725",
    "lng": "-94.5155052"
  },
  {
    "Type": "FoodBank",
    "Name": "Seton Center Inc",
    "Phone":"Phone",
    "Address": "2816 E 23rd St",
    "City": "Kansas City",
    "State": "MO",
    "Zipcode": "64127",
    "lat": "39.0849729",
    "lng": "-94.5489297"
  },
  {
    "Type": "FoodBank",
    "Name": "Santa Fe Waystation Food Pantry",
    "Phone":"Phone",
    "Address": "6422 Santa Fe Dr",
    "City": "Mission",
    "State": "KS",
    "Zipcode": "66202",
    "lat": "39.0118633",
    "lng": "-94.6748673"
  },
  {
    "Type": "FoodBank",
    "Name": "Village Presbyterian Church Food Pantry",
    "Phone":"Phone",
    "Address": "Tillotson Building, 9960 Mission Rd",
    "City": "Overland Park",
    "State": "KS",
    "Zipcode": "66207",
    "lat": "38.948021",
    "lng": "-94.6331087"
  },
  {
    "Type": "FoodBank",
    "Name": "Fishes and Loaves Food Pantry",
    "Phone":"Phone",
    "Address": "1315 E Walnut St",
    "City": "Raymore",
    "State": "MO",
    "Zipcode": "64083",
    "lat": "38.8025815",
    "lng": "-94.4284498"
  },
  {
    "Type": "FoodBank",
    "Name": "Abundant Life Food Panty",
    "Phone":"Phone",
    "Address": "1300 SW Jefferson St",
    "City": "Lee's Summit",
    "State": "MO",
    "Zipcode": "64081",
    "lat": "38.8978724",
    "lng": "-94.3798815"
  },
  {
    "Type": "FoodBank",
    "Name": "New Hope Food Pantry",
    "Phone":"Phone",
    "Address": "13310 S Black Bob Rd",
    "City": "Olathe",
    "State": "KS",
    "Zipcode": "66062",
    "lat": "38.8881332",
    "lng": "-94.7645868"
  }
]