[
  {
    "Type": "FoodBank",
    "Name": "Carry The Cross",
    "Phone": "913-515-0045",
    "Address": "5517 Freeman Avenue",
    "City": "Kansas City",
    "State": "KS",
    "Zipcode": "66102",
    "lat": 39.1225871,
    "lng": -94.70554639999999,
    "link": "https://harvesters.org/Service-Detail?id=25690&zip=66224&rad=30&type=-1"
  },
  {
    "Type": "FoodBank",
    "Name": "Grandview Park",
    "Phone": "816-804-7944",
    "Address": "1613 Wilson Boulevard",
    "City": "Kansas City",
    "State": "KS",
    "Zipcode": "66102",
    "lat": 39.1038567,
    "lng": -94.6478198,
    "link": "https://harvesters.org/Service-Detail?id=25691&zip=66224&rad=30&type=-1"
  },
  {
    "Type": "FoodBank",
    "Name": "New Life Family Church",
    "Phone": "913-262-8048",
    "Address": "4835 Shawnee Drive",
    "City": "Kansas City",
    "State": "KS",
    "Zipcode": "66106",
    "lat": 39.047119,
    "lng": -94.688097,
    "link": "https://harvesters.org/Service-Detail?id=25692&zip=66224&rad=30&type=-1"
  },
  {
    "Type": "FoodBank",
    "Name": "Living Hope Outreach",
    "Phone": "",
    "Address": "2425 1/2 S Crysler Avenue",
    "City": "Independence",
    "State": "MO",
    "Zipcode": "64052",
    "lat": 39.0908858,
    "lng": -94.4318596,
    "link": "https://harvesters.org/Service-Detail?id=25693&zip=66224&rad=30&type=-1"
  },
  {
    "Type": "FoodBank",
    "Name": "Salem Lutheran Church",
    "Phone": "913-888-5051 ",
    "Address": "9135 Haskins",
    "City": "Lenexa",
    "State": "KS",
    "Zipcode": "66215",
    "lat": 38.962545,
    "lng": -94.7405571,
    "link": "https://harvesters.org/Service-Detail?id=25694&zip=66224&rad=10&type=1"
  },
  {
    "Type": "FoodBank",
    "Name": "Pentecostal COGIC",
    "Phone": "816-361-9474",
    "Address": "6300 Swope Parkway",
    "City": "Kansas City",
    "State": "MO",
    "Zipcode": "64132",
    "lat": 39.011619,
    "lng": -94.543193,
    "link": "https://harvesters.org/Service-Detail?id=25696&zip=66224&rad=10&type=1"
  },
  {
    "Type": "FoodBank",
    "Name": "New Kingdom of Faith and",
    "Phone": "816-801-0146",
    "Address": "5100 NE Chouteau Trafficway",
    "City": "Kansas City",
    "State": "MO",
    "Zipcode": "64119",
    "lat": 39.1863941,
    "lng": -94.5440297,
    "link": "https://harvesters.org/Service-Detail?id=25697&zip=66224&rad=30&type=-1"
  },
  {
    "Type": "FoodBank",
    "Name": "Shepherds Staff Pantry",
    "Phone": "816-844-0078",
    "Address": "1311 Sanders Street",
    "City": "Harrisonville",
    "State": "MO",
    "Zipcode": "64701",
    "lat": 38.6456749,
    "lng": -94.3533114,
    "link": "https://harvesters.org/Service-Detail?id=25698&zip=66224&rad=30&type=-1"
  },
  {
    "Type": "FoodBank",
    "Name": "Avondale United Methodist",
    "Phone": "816-452-3518",
    "Address": "3135 NE Winn Road",
    "City": "Kansas City",
    "State": "MO",
    "Zipcode": "64117",
    "lat": 39.1600655,
    "lng": -94.5433046,
    "link": "https://harvesters.org/Service-Detail?id=25699&zip=66224&rad=30&type=-1"
  },
  {
    "Type": "FoodBank",
    "Name": "Heart-n-Hand",
    "Phone": "816-322-1133",
    "Address": "200 B Street",
    "City": "Belton",
    "State": "MO",
    "Zipcode": "64012",
    "lat": 38.8142513,
    "lng": -94.5322681,
    "link": "https://harvesters.org/Service-Detail?id=25700&zip=66224&rad=10&type=1"
  },
  {
    "Type": "FoodBank",
    "Name": "Jewish Family Services",
    "Phone": "913-327-8250",
    "Address": "5801 W 115th Street 103",
    "City": "Overland Park",
    "State": "KS",
    "Zipcode": "66211",
    "lat": 38.918211,
    "lng": -94.65282909999999,
    "link": "https://harvesters.org/Service-Detail?id=25701&zip=66224&rad=10&type=1"
  },
  {
    "Type": "FoodBank",
    "Name": "United Pentecostal Church",
    "Phone": "816-781-9689",
    "Address": "1315 Nashua Road",
    "City": "Liberty",
    "State": "MO",
    "Zipcode": "64068",
    "lat": 39.2638063,
    "lng": -94.44236839999999,
    "link": "https://harvesters.org/Service-Detail?id=25702&zip=64129&rad=30&type=-1"
  },
  {
    "Type": "FoodBank",
    "Name": "Church of the Resurrection OP",
    "Phone": "913-642-4400",
    "Address": "8412 W 95th Street",
    "City": "Overland Park",
    "State": "KS",
    "Zipcode": "66212",
    "lat": 38.9580666,
    "lng": -94.683228,
    "link": "https://harvesters.org/Service-Detail?id=25703&zip=66224&rad=10&type=1"
  },
  {
    "Type": "FoodBank",
    "Name": "Calvary Temple-Helping Hands",
    "Phone": "816-726-1526",
    "Address": "5612 Saint John Avenue",
    "City": "Kansas City",
    "State": "MO",
    "Zipcode": "64123",
    "lat": 39.1126266,
    "lng": -94.5158182,
    "link": "https://harvesters.org/Service-Detail?id=25704&zip=66224&rad=30&type=-1"
  },
  {
    "Type": "FoodBank",
    "Name": "New Hope Presbyterian Church",
    "Phone": "913-782-0955",
    "Address": "13310 S Blackbob Road",
    "City": "Olathe",
    "State": "KS",
    "Zipcode": "66062",
    "lat": 38.8880002,
    "lng": -94.7624001,
    "link": "https://harvesters.org/Service-Detail?id=25705&zip=66224&rad=10&type=1"
  },
  {
    "Type": "FoodBank",
    "Name": "Catholic Charities",
    "Phone": "913-432-3141",
    "Address": "9806 W 87th Street",
    "City": "Overland Park",
    "State": "KS",
    "Zipcode": "66212",
    "lat": 38.9716372,
    "lng": -94.69847469999999,
    "link": "https://harvesters.org/Service-Detail?id=25706&zip=66224&rad=10&type=1"
  },
  {
    "Type": "FoodBank",
    "Name": "Central Presbyterian Church",
    "Phone": "816-931-2515  ",
    "Address": "3501 Campbell Street",
    "City": "Kansas City",
    "State": "MO",
    "Zipcode": "64109",
    "lat": 39.0628491,
    "lng": -94.57368679999999,
    "link": "https://harvesters.org/Service-Detail?id=25708&zip=66224&rad=30&type=-1"
  },
  {
    "Type": "FoodBank",
    "Name": "Calvary Chapel Church of God",
    "Phone": "816-877-1992",
    "Address": "5101 Bristol Avenue",
    "City": "Kansas City",
    "State": "MO",
    "Zipcode": "64129",
    "lat": 39.0323655,
    "lng": -94.5017884,
    "link": "https://harvesters.org/Service-Detail?id=25709&zip=66224&rad=30&type=-1"
  },
  {
    "Type": "FoodBank",
    "Name": "Saint Catherine's Outreach",
    "Phone": "816-761-5483",
    "Address": "4101 E 105th Terrace",
    "City": "Kansas City",
    "State": "MO",
    "Zipcode": "64137",
    "lat": 38.9339445,
    "lng": -94.5427406,
    "link": "https://harvesters.org/Service-Detail?id=25710&zip=66224&rad=10&type=1"
  },
  {
    "Type": "FoodBank",
    "Name": "Community Christian Church",
    "Phone": "816-561-6531",
    "Address": "4601 Main Street",
    "City": "Kansas City",
    "State": "MO",
    "Zipcode": "64112",
    "lat": 39.0432533,
    "lng": -94.5865056,
    "link": "https://harvesters.org/Service-Detail?id=25711&zip=66224&rad=30&type=-1"
  },
  {
    "Type": "FoodBank",
    "Name": "Cross Point Assembly of God",
    "Phone": "913-294-2429",
    "Address": "1016 N Pearl Street",
    "City": "Paola",
    "State": "KS",
    "Zipcode": "66071",
    "lat": 38.5853756,
    "lng": -94.8739944,
    "link": "https://harvesters.org/Service-Detail?id=25712&zip=66224&rad=30&type=-1"
  },
  {
    "Type": "FoodBank",
    "Name": "CSL- Noland Road Community",
    "Phone": "816-491-2013",
    "Address": "404 N Noland Road",
    "City": "Independence",
    "State": "MO",
    "Zipcode": "64050",
    "lat": 39.0947237,
    "lng": -94.413306,
    "link": "https://harvesters.org/Service-Detail?id=25713&zip=66224&rad=30&type=-1"
  },
  {
    "Type": "FoodBank",
    "Name": "CSL-39th Street",
    "Phone": "816-254-8209",
    "Address": "14506 E 39th Street",
    "City": "Independence",
    "State": "MO",
    "Zipcode": "64055",
    "lat": 39.0507317,
    "lng": -94.4080017,
    "link": "https://harvesters.org/Service-Detail?id=25714&zip=66224&rad=30&type=-1"
  },
  {
    "Type": "FoodBank",
    "Name": "CSL-Blue Springs",
    "Phone": "816-229-0033",
    "Address": "200 SW 10th Street",
    "City": "Blue Springs",
    "State": "MO",
    "Zipcode": "64015",
    "lat": 39.0172204,
    "lng": -94.2765158,
    "link": "https://harvesters.org/Service-Detail?id=25715&zip=66224&rad=30&type=-1"
  },
  {
    "Type": "FoodBank",
    "Name": "Bishop Sullivan - Truman",
    "Phone": "816-231-0984",
    "Address": "6435 Truman Road",
    "City": "Kansas City",
    "State": "MO",
    "Zipcode": "64126",
    "lat": 39.0934149,
    "lng": -94.5060956,
    "link": "https://harvesters.org/Service-Detail?id=25716&zip=66224&rad=30&type=-1"
  },
  {
    "Type": "FoodBank",
    "Name": "CSL- Buckner",
    "Phone": "816-249-5820",
    "Address": "1001 S Sibley Street",
    "City": "Buckner",
    "State": "MO",
    "Zipcode": "64016",
    "lat": 39.1253759,
    "lng": -94.1973426,
    "link": "https://harvesters.org/Service-Detail?id=25717&zip=66224&rad=30&type=-1"
  },
  {
    "Type": "FoodBank",
    "Name": "New Vision COGIC",
    "Phone": "913-438-8757",
    "Address": "9609 Pflumm Road",
    "City": "Lenexa",
    "State": "KS",
    "Zipcode": "66215",
    "lat": 38.9546262,
    "lng": -94.741841,
    "link": "https://harvesters.org/Service-Detail?id=25718&zip=66224&rad=10&type=1"
  },
  {
    "Type": "FoodBank",
    "Name": "CSL-Grain Valley",
    "Phone": "816-355-0832",
    "Address": "513 Gregg Street",
    "City": "Grain Valley",
    "State": "MO",
    "Zipcode": "64029",
    "lat": 39.0157836,
    "lng": -94.19910360000002,
    "link": "https://harvesters.org/Service-Detail?id=25719&zip=66224&rad=30&type=-1"
  },
  {
    "Type": "FoodBank",
    "Name": "Covenant Presbyterian Church",
    "Phone": "816-444-3693",
    "Address": "5931 Swope Parkway",
    "City": "Kansas City",
    "State": "MO",
    "Zipcode": "64130",
    "lat": 39.0174623,
    "lng": -94.541371,
    "link": "https://harvesters.org/Service-Detail?id=25720&zip=66224&rad=30&type=-1"
  },
  {
    "Type": "FoodBank",
    "Name": "CSL-Oak Grove",
    "Phone": "816-690-8213",
    "Address": "1408 SE Austin Street",
    "City": "Oak Grove",
    "State": "MO",
    "Zipcode": "64075",
    "lat": 39.0015242,
    "lng": -94.1284484,
    "link": "https://harvesters.org/Service-Detail?id=25721&zip=66224&rad=30&type=-1"
  },
  {
    "Type": "FoodBank",
    "Name": "Salvation Army",
    "Phone": "816-753-6040",
    "Address": "500 W 39th Street",
    "City": "Kansas City",
    "State": "MO",
    "Zipcode": "64111",
    "lat": 39.0569774,
    "lng": -94.5918679,
    "link": "https://harvesters.org/Service-Detail?id=25722&zip=66224&rad=30&type=-1"
  },
  {
    "Type": "FoodBank",
    "Name": "Downtown Church of Christ",
    "Phone": "816-241-9999",
    "Address": "2010 Van Brunt Boulevard",
    "City": "Kansas City",
    "State": "MO",
    "Zipcode": "64127",
    "lat": 39.08650799999999,
    "lng": -94.521525,
    "link": "https://harvesters.org/Service-Detail?id=25723&zip=66224&rad=30&type=-1"
  },
  {
    "Type": "FoodBank",
    "Name": "Church On The Rock Outreach",
    "Phone": "816-246-7625",
    "Address": "1700 SW Market Street",
    "City": "Lees Summit",
    "State": "MO",
    "Zipcode": "64082",
    "lat": 38.8885002,
    "lng": -94.37534579999999,
    "link": "https://harvesters.org/Service-Detail?id=25724&zip=66224&rad=30&type=-1"
  },
  {
    "Type": "FoodBank",
    "Name": "New Bethel Community Service",
    "Phone": "913-281-1993",
    "Address": "745 Walker Avenue",
    "City": "Kansas City",
    "State": "KS",
    "Zipcode": "66101",
    "lat": 39.1230642,
    "lng": -94.6291359,
    "link": "https://harvesters.org/Service-Detail?id=25725&zip=66224&rad=30&type=-1"
  },
  {
    "Type": "FoodBank",
    "Name": "First Christian Church",
    "Phone": "913-621-5739",
    "Address": "1000 Argentine Boulevard",
    "City": "Kansas City",
    "State": "KS",
    "Zipcode": "66105",
    "lat": 39.0848518,
    "lng": -94.6357129,
    "link": "https://harvesters.org/Service-Detail?id=25726&zip=66224&rad=30&type=-1"
  },
  {
    "Type": "FoodBank",
    "Name": "Citizens Civic Relief",
    "Phone": "816-896-7046",
    "Address": "625 N Sterling Suite 500",
    "City": "Sugar Creek",
    "State": "MO",
    "Zipcode": "64054",
    "lat": 39.11483399999999,
    "lng": -94.44439,
    "link": "https://harvesters.org/Service-Detail?id=25727&zip=66224&rad=30&type=-1"
  },
  {
    "Type": "FoodBank",
    "Name": "New Life in Christ",
    "Phone": "816-966-8989",
    "Address": "12401 Byars Road",
    "City": "Grandview",
    "State": "MO",
    "Zipcode": "64030",
    "lat": 38.89881,
    "lng": -94.505201,
    "link": "https://harvesters.org/Service-Detail?id=25728&zip=66224&rad=10&type=1"
  },
  {
    "Type": "FoodBank",
    "Name": "Guadalupe Center Incorporated",
    "Phone": "816-949-9011",
    "Address": "1512 Van Brunt",
    "City": "Kansas City",
    "State": "MO",
    "Zipcode": "64127",
    "lat": 39.0934643,
    "lng": -94.52373039999999,
    "link": "https://harvesters.org/Service-Detail?id=25729&zip=66224&rad=30&type=-1"
  },
  {
    "Type": "FoodBank",
    "Name": "Northland Assistance Center",
    "Phone": "816-421-2243",
    "Address": "2018 Gentry Street",
    "City": "North Kansas City",
    "State": "MO",
    "Zipcode": "64116",
    "lat": 39.1434501,
    "lng": -94.57408989999999,
    "link": "https://harvesters.org/Service-Detail?id=25730&zip=66224&rad=30&type=-1"
  },
  {
    "Type": "FoodBank",
    "Name": "Heart of America Indian Center",
    "Phone": "816-421-7608",
    "Address": "600 W 39th Street",
    "City": "Kansas City",
    "State": "MO",
    "Zipcode": "64111",
    "lat": 39.057125,
    "lng": -94.59327909999999,
    "link": "https://harvesters.org/Service-Detail?id=25731&zip=66224&rad=30&type=-1"
  },
  {
    "Type": "FoodBank",
    "Name": "Immanuel Lutheran Church",
    "Phone": "816-561-0561",
    "Address": "4205 Tracy Avenue",
    "City": "Kansas City",
    "State": "MO",
    "Zipcode": "64110",
    "lat": 39.0503811,
    "lng": -94.5694548,
    "link": "https://harvesters.org/Service-Detail?id=25732&zip=66224&rad=30&type=-1"
  },
  {
    "Type": "FoodBank",
    "Name": "Linwood United Church",
    "Phone": "816-923-3213",
    "Address": "3151 Olive Street",
    "City": "Kansas City",
    "State": "MO",
    "Zipcode": "64109",
    "lat": 39.0684957,
    "lng": -94.5549478,
    "link": "https://harvesters.org/Service-Detail?id=25733&zip=66224&rad=30&type=-1"
  },
  {
    "Type": "FoodBank",
    "Name": "Dayspring Pentecostal Church",
    "Phone": "816-765-0360",
    "Address": "9910 E Bannister Road",
    "City": "Kansas City",
    "State": "MO",
    "Zipcode": "64134",
    "lat": 38.951047,
    "lng": -94.46665999999999,
    "link": "https://harvesters.org/Service-Detail?id=25734&zip=66224&rad=10&type=1"
  },
  {
    "Type": "FoodBank",
    "Name": "MLM - Central",
    "Phone": "816-285-3141",
    "Address": "3031 Holmes Street",
    "City": "Kansas City",
    "State": "MO",
    "Zipcode": "64109",
    "lat": 39.0713403,
    "lng": -94.57627699999999,
    "link": "https://harvesters.org/Service-Detail?id=25735&zip=66224&rad=30&type=-1"
  },
  {
    "Type": "FoodBank",
    "Name": "MLM - Northland",
    "Phone": "816-454-5295",
    "Address": "1100 NE Vivion Road",
    "City": "Kansas City",
    "State": "MO",
    "Zipcode": "64118",
    "lat": 39.1813444,
    "lng": -94.5664965,
    "link": "https://harvesters.org/Service-Detail?id=25736&zip=66224&rad=30&type=-1"
  },
  {
    "Type": "FoodBank",
    "Name": "MLM - Wyandotte",
    "Phone": "913-342-8333",
    "Address": "722 Reynolds Avenue",
    "City": "Kansas City",
    "State": "KS",
    "Zipcode": "66101",
    "lat": 39.1047099,
    "lng": -94.627865,
    "link": "https://harvesters.org/Service-Detail?id=25737&zip=66224&rad=30&type=-1"
  },
  {
    "Type": "FoodBank",
    "Name": "Vernell's Pantry",
    "Phone": "816-923-5815",
    "Address": "3634 Brooklyn Avenue",
    "City": "Kansas City",
    "State": "MO",
    "Zipcode": "64109",
    "lat": 39.0600777,
    "lng": -94.5583324,
    "link": "https://harvesters.org/Service-Detail?id=25738&zip=66224&rad=30&type=-1"
  },
  {
    "Type": "FoodBank",
    "Name": "New Covenant Ministries",
    "Phone": "816-836-8303",
    "Address": "532 South Main",
    "City": "Independence",
    "State": "MO",
    "Zipcode": "64050",
    "lat": 39.0866946,
    "lng": -94.4162396,
    "link": "https://harvesters.org/Service-Detail?id=25739&zip=66224&rad=30&type=-1"
  },
  {
    "Type": "FoodBank",
    "Name": "ICNA Relief",
    "Phone": "785-969-1587",
    "Address": "5310 Blue Ridge Cutoff",
    "City": "Raytown",
    "State": "MO",
    "Zipcode": "64129",
    "lat": 39.0268376,
    "lng": -94.48170619999999,
    "link": "https://harvesters.org/Service-Detail?id=25740&zip=66224&rad=30&type=-1"
  },
  {
    "Type": "FoodBank",
    "Name": "SPEAC",
    "Phone": "816-746-1057",
    "Address": "819 Main Street",
    "City": "Parkville",
    "State": "MO",
    "Zipcode": "64152",
    "lat": 39.19395069999999,
    "lng": -94.6833542,
    "link": "https://harvesters.org/Service-Detail?id=25741&zip=66224&rad=30&type=-1"
  },
  {
    "Type": "FoodBank",
    "Name": "A Turning Point Ministry Inc",
    "Phone": "816-237-0138",
    "Address": "5105 NW Waukomis Drive",
    "City": "Kansas City ",
    "State": "MO",
    "Zipcode": "64151",
    "lat": 39.1874996,
    "lng": -94.605578,
    "link": "https://harvesters.org/Service-Detail?id=25742&zip=66224&rad=30&type=-1"
  },
  {
    "Type": "FoodBank",
    "Name": "Bethel Neighborhood Center",
    "Phone": "913-371-8218",
    "Address": "1916 Central Avenue",
    "City": "Kansas City",
    "State": "KS",
    "Zipcode": "66102",
    "lat": 39.1070403,
    "lng": -94.65145249999999,
    "link": "https://harvesters.org/Service-Detail?id=25743&zip=66224&rad=30&type=-1"
  },
  {
    "Type": "FoodBank",
    "Name": "Bishop Sullivan - Troost",
    "Phone": "816-561-8515",
    "Address": "3936 Troost Avenue",
    "City": "Kansas City",
    "State": "MO",
    "Zipcode": "64110",
    "lat": 39.0548607,
    "lng": -94.57242719999999,
    "link": "https://harvesters.org/Service-Detail?id=25744&zip=66224&rad=30&type=-1"
  },
  {
    "Type": "FoodBank",
    "Name": "Spring Hill Food Pantry",
    "Phone": "913-592-5433",
    "Address": "206 N Webster",
    "City": "Spring Hill",
    "State": "KS",
    "Zipcode": "66083",
    "lat": 38.7450109,
    "lng": -94.8246037,
    "link": "https://harvesters.org/Service-Detail?id=25745&zip=66224&rad=30&type=-1"
  },
  {
    "Type": "FoodBank",
    "Name": "Saint Louis Social Services",
    "Phone": "816-822-2831",
    "Address": "5930 Swope Parkway",
    "City": "Kansas City",
    "State": "MO",
    "Zipcode": "64130",
    "lat": 39.0172621,
    "lng": -94.5423378,
    "link": "https://harvesters.org/Service-Detail?id=25746&zip=66224&rad=30&type=-1"
  },
  {
    "Type": "FoodBank",
    "Name": "Saint Therese Catholic Church",
    "Phone": "816-444-5406",
    "Address": "5814 Euclid Avenue",
    "City": "Kansas City",
    "State": "MO",
    "Zipcode": "64130",
    "lat": 39.021059,
    "lng": -94.5627469,
    "link": "https://harvesters.org/Service-Detail?id=25747&zip=66224&rad=30&type=-1"
  },
  {
    "Type": "FoodBank",
    "Name": "Salvation Army Eastside",
    "Phone": "816-483-8484",
    "Address": "3013 E 9th Street",
    "City": "Kansas City",
    "State": "MO",
    "Zipcode": "64124",
    "lat": 39.1021131,
    "lng": -94.5461217,
    "link": "https://harvesters.org/Service-Detail?id=25748&zip=66224&rad=30&type=-1"
  },
  {
    "Type": "FoodBank",
    "Name": "Salvation Army",
    "Phone": "816-763-3244 ",
    "Address": "6111 E 129th Street",
    "City": "Grandview",
    "State": "MO",
    "Zipcode": "64030",
    "lat": 38.8910558,
    "lng": -94.5210727,
    "link": "https://harvesters.org/Service-Detail?id=25749&zip=66224&rad=10&type=1"
  },
  {
    "Type": "FoodBank",
    "Name": "Salvation Army",
    "Phone": "816-252-3200",
    "Address": "14700 E Truman Rd",
    "City": "Independence",
    "State": "MO",
    "Zipcode": "64050",
    "lat": 39.0944872,
    "lng": -94.40523429999999,
    "link": "https://harvesters.org/Service-Detail?id=25750&zip=66224&rad=30&type=-1"
  },
  {
    "Type": "FoodBank",
    "Name": "Salvation Army",
    "Phone": "913-957-5900",
    "Address": "6721 State Avenue",
    "City": "Kansas City",
    "State": "KS",
    "Zipcode": "66102",
    "lat": 39.1166654,
    "lng": -94.7336073,
    "link": "https://harvesters.org/Service-Detail?id=25751&zip=66224&rad=30&type=-1"
  },
  {
    "Type": "FoodBank",
    "Name": "Seton Center",
    "Phone": "816-581-4710",
    "Address": "2816 E 23rd Street",
    "City": "Kansas City",
    "State": "MO",
    "Zipcode": "64127",
    "lat": 39.0851408,
    "lng": -94.5488237,
    "link": "https://harvesters.org/Service-Detail?id=25752&zip=66224&rad=30&type=-1"
  },
  {
    "Type": "FoodBank",
    "Name": "Jewish Family Services",
    "Phone": "913-327-8257",
    "Address": "425 E 63rd Street",
    "City": "Kansas City",
    "State": "MO",
    "Zipcode": "64114",
    "lat": 39.0133443,
    "lng": -94.582313,
    "link": "https://harvesters.org/Service-Detail?id=25753&zip=66224&rad=10&type=1"
  },
  {
    "Type": "FoodBank",
    "Name": "First Southern Baptist Church",
    "Phone": "913-381-0467",
    "Address": "8600 W 91st Terrace",
    "City": "Overland Park",
    "State": "KS",
    "Zipcode": "66212",
    "lat": 38.9633904,
    "lng": -94.6853541,
    "link": "https://harvesters.org/Service-Detail?id=25754&zip=66224&rad=10&type=1"
  },
  {
    "Type": "FoodBank",
    "Name": "Community Action Agency GKC",
    "Phone": "816-858-5153",
    "Address": "412 Aller Avenue",
    "City": "Tracy",
    "State": "MO",
    "Zipcode": "64079",
    "lat": 39.3792143,
    "lng": -94.79431629999999,
    "link": "https://harvesters.org/Service-Detail?id=25755&zip=64129&rad=30&type=-1"
  },
  {
    "Type": "FoodBank",
    "Name": "Greater Jerusalem Baptist Church",
    "Phone": "913-371-1487",
    "Address": "1610 N 10th Street",
    "City": "Kansas City",
    "State": "KS",
    "Zipcode": "66102",
    "lat": 39.1219608,
    "lng": -94.63547080000001,
    "link": "https://harvesters.org/Service-Detail?id=25756&zip=66224&rad=30&type=-1"
  },
  {
    "Type": "FoodBank",
    "Name": "Saint Francis Xavier",
    "Phone": "816-381-9174",
    "Address": "1001 E 52nd Street",
    "City": "Kansas City",
    "State": "MO",
    "Zipcode": "64110",
    "lat": 39.0321122,
    "lng": -94.5742511,
    "link": "https://harvesters.org/Service-Detail?id=25757&zip=66224&rad=30&type=-1"
  },
  {
    "Type": "FoodBank",
    "Name": "CCF Dunamis",
    "Phone": "816-288-1320",
    "Address": "911 S Parker Street Suite B",
    "City": "Olathe",
    "State": "KS",
    "Zipcode": "66061",
    "lat": 38.8697831,
    "lng": -94.83614680000001,
    "link": "https://harvesters.org/Service-Detail?id=25758&zip=66224&rad=30&type=-1"
  },
  {
    "Type": "FoodBank",
    "Name": "Blue Ridge Church of Christ",
    "Phone": "816-765-2699",
    "Address": "9603 Blue Ridge Boulevard",
    "City": "Kansas City",
    "State": "MO",
    "Zipcode": "64134",
    "lat": 38.949852,
    "lng": -94.50710199999999,
    "link": "https://harvesters.org/Service-Detail?id=25759&zip=66224&rad=10&type=1"
  },
  {
    "Type": "FoodBank",
    "Name": "Della Lamb Community Services",
    "Phone": "816-842-8040",
    "Address": "500 Woodland Avenue",
    "City": "Kansas City",
    "State": "MO",
    "Zipcode": "64127",
    "lat": 39.1086081,
    "lng": -94.5602263,
    "link": "https://harvesters.org/Service-Detail?id=25760&zip=66224&rad=30&type=-1"
  },
  {
    "Type": "FoodBank",
    "Name": "Guardian Angels Church",
    "Phone": "816-931-4351",
    "Address": "1310 Westport Road",
    "City": "Kansas City",
    "State": "MO",
    "Zipcode": "64111",
    "lat": 39.050254,
    "lng": -94.6027149,
    "link": "https://harvesters.org/Service-Detail?id=25761&zip=66224&rad=30&type=-1"
  },
  {
    "Type": "FoodBank",
    "Name": "West Lenexa Seventh Day - Please note the agency is closed for the rest of March due to COVID-19,",
    "Phone": "913-812-3043",
    "Address": "24450 W 83rd Street",
    "City": "Lenexa",
    "State": "KS",
    "Zipcode": "66227",
    "lat": 38.978972,
    "lng": -94.871,
    "link": "https://harvesters.org/Service-Detail?id=25762&zip=66224&rad=30&type=-1"
  },
  {
    "Type": "FoodBank",
    "Name": "Holt Ministerial Alliance - Please note this agency is closed until further notice",
    "Phone": "816-615-9671",
    "Address": "225 Main Street",
    "City": "Holt",
    "State": "MO",
    "Zipcode": "64048",
    "lat": 39.453308,
    "lng": -94.341584,
    "link": "https://harvesters.org/Service-Detail?id=25763&zip=64129&rad=30&type=-1"
  },
  {
    "Type": "FoodBank",
    "Name": "Coronation of Our Lady",
    "Phone": "816-761-8811",
    "Address": "13000 Bennington Avenue",
    "City": "Grandview",
    "State": "MO",
    "Zipcode": "64030",
    "lat": 38.88906970000001,
    "lng": -94.51660330000001,
    "link": "https://harvesters.org/Service-Detail?id=25764&zip=66224&rad=10&type=1"
  },
  {
    "Type": "FoodBank",
    "Name": "CSL-Fairmount Outreach",
    "Phone": "816-254-0446",
    "Address": "800 S Hardy",
    "City": "Independence",
    "State": "MO",
    "Zipcode": "64053",
    "lat": 39.1004041,
    "lng": -94.4556588,
    "link": "https://harvesters.org/Service-Detail?id=25765&zip=66224&rad=30&type=-1"
  },
  {
    "Type": "FoodBank",
    "Name": "Christian Fellowship BC",
    "Phone": "816-561-7791",
    "Address": "4509 Troost Avenue",
    "City": "Kansas City",
    "State": "MO",
    "Zipcode": "64110",
    "lat": 39.0447422,
    "lng": -94.5723567,
    "link": "https://harvesters.org/Service-Detail?id=25766&zip=66224&rad=30&type=-1"
  },
  {
    "Type": "FoodBank",
    "Name": "Saint Stephen Baptist Church",
    "Phone": "816-842-6311",
    "Address": "1414 E Truman Road",
    "City": "Kansas City",
    "State": "MO",
    "Zipcode": "64106",
    "lat": 39.0955494,
    "lng": -94.56510229999999,
    "link": "https://harvesters.org/Service-Detail?id=25767&zip=66224&rad=30&type=-1"
  },
  {
    "Type": "FoodBank",
    "Name": "Downtown Outreach, Inc.",
    "Phone": "816-842-0975",
    "Address": "1307 Holmes Street",
    "City": "Kansas City",
    "State": "MO",
    "Zipcode": "64106",
    "lat": 39.098133,
    "lng": -94.57481539999999,
    "link": "https://harvesters.org/Service-Detail?id=25768&zip=66224&rad=30&type=-1"
  },
  {
    "Type": "FoodBank",
    "Name": "Community Assistance Council",
    "Phone": "816-763-3277",
    "Address": "10901 Blue Ridge Boulevard",
    "City": "Kansas City",
    "State": "MO",
    "Zipcode": "64134",
    "lat": 38.924085,
    "lng": -94.50719199999999,
    "link": "https://harvesters.org/Service-Detail?id=25769&zip=66224&rad=10&type=1"
  },
  {
    "Type": "FoodBank",
    "Name": "Foster Adopt Connect  INC",
    "Phone": "816-659-9361",
    "Address": "18600 E 37th Terrace South",
    "City": "Independence",
    "State": "MO",
    "Zipcode": "64057",
    "lat": 39.0508423,
    "lng": -94.3617319,
    "link": "https://harvesters.org/Service-Detail?id=25770&zip=66224&rad=30&type=-1"
  },
  {
    "Type": "FoodBank",
    "Name": "Community Senior Service",
    "Phone": "913-755-4169",
    "Address": "811 6th Street PO Box 310",
    "City": "Osawatomie",
    "State": "KS",
    "Zipcode": "66064",
    "lat": 38.4955479,
    "lng": -94.9500005,
    "link": "https://harvesters.org/Service-Detail?id=25771&zip=66051&rad=30&type=-1"
  },
  {
    "Type": "FoodBank",
    "Name": "Gloria Dei Lutheran",
    "Phone": "816-741-3150",
    "Address": "5409 NW 72nd Street",
    "City": "Kansas City",
    "State": "MO",
    "Zipcode": "64151",
    "lat": 39.2243304,
    "lng": -94.64382420000001,
    "link": "https://harvesters.org/Service-Detail?id=25772&zip=66224&rad=30&type=-1"
  },
  {
    "Type": "FoodBank",
    "Name": "High Hopes II",
    "Phone": "913-299-9015",
    "Address": "7725 Kansas Avenue",
    "City": "Kansas City",
    "State": "KS",
    "Zipcode": "66111",
    "lat": 39.0871173,
    "lng": -94.75908729999999,
    "link": "https://harvesters.org/Service-Detail?id=25773&zip=66224&rad=30&type=-1"
  },
  {
    "Type": "FoodBank",
    "Name": "Pleasant Green Baptist Church",
    "Phone": "816-868-0176",
    "Address": "2910 E 30th Street",
    "City": "Kansas City",
    "State": "MO",
    "Zipcode": "64128",
    "lat": 39.0718671,
    "lng": -94.5487465,
    "link": "https://harvesters.org/Service-Detail?id=25774&zip=66224&rad=30&type=-1"
  },
  {
    "Type": "FoodBank",
    "Name": "Sunlight Missionary Baptist",
    "Phone": "816-921-4159",
    "Address": "4444 Woodland Avenue",
    "City": "Kansas City",
    "State": "MO",
    "Zipcode": "64110",
    "lat": 39.04536220000001,
    "lng": -94.56377239999999,
    "link": "https://harvesters.org/Service-Detail?id=25775&zip=66224&rad=30&type=-1"
  },
  {
    "Type": "FoodBank",
    "Name": "Victorious Life Church",
    "Phone": "816-561-3619",
    "Address": "3400 Paseo Boulevard",
    "City": "Kansas City",
    "State": "MO",
    "Zipcode": "64109",
    "lat": 39.0645415,
    "lng": -94.56780239999999,
    "link": "https://harvesters.org/Service-Detail?id=25776&zip=66224&rad=30&type=-1"
  },
  {
    "Type": "FoodBank",
    "Name": "Harvest Church",
    "Phone": "816-455-7777",
    "Address": "4300 N Corrington",
    "City": "Kansas City",
    "State": "MO",
    "Zipcode": "64117",
    "lat": 39.1713535,
    "lng": -94.4974367,
    "link": "https://harvesters.org/Service-Detail?id=25778&zip=66224&rad=30&type=-1"
  },
  {
    "Type": "FoodBank",
    "Name": "Agape Christian Center",
    "Phone": "913-980-3147",
    "Address": "249 N Metcalf",
    "City": "Louisburg",
    "State": "KS",
    "Zipcode": "66053",
    "lat": 38.6237735,
    "lng": -94.67457449999999,
    "link": "https://harvesters.org/Service-Detail?id=25780&zip=66224&rad=30&type=-1"
  },
  {
    "Type": "FoodBank",
    "Name": "Barry Christian Church",
    "Phone": "816-436-0462",
    "Address": "1500 NW Barry Road",
    "City": "Kansas City",
    "State": "MO",
    "Zipcode": "64155",
    "lat": 39.2471502,
    "lng": -94.5984403,
    "link": "https://harvesters.org/Service-Detail?id=25781&zip=66224&rad=30&type=-1"
  },
  {
    "Type": "FoodBank",
    "Name": "Wilkerson  Food Pantry",
    "Phone": "816-781-3621",
    "Address": "427 E Kansas Street",
    "City": "Liberty",
    "State": "MO",
    "Zipcode": "64068",
    "lat": 39.2457205,
    "lng": -94.4155911,
    "link": "https://harvesters.org/Service-Detail?id=25782&zip=64129&rad=30&type=-1"
  },
  {
    "Type": "FoodBank",
    "Name": "Saint Andrew United Methodist",
    "Phone": "816-921-1548",
    "Address": "4601 Benton Boulevard",
    "City": "Kansas City",
    "State": "MO",
    "Zipcode": "64130",
    "lat": 39.04192070000001,
    "lng": -94.5441707,
    "link": "https://harvesters.org/Service-Detail?id=25783&zip=66224&rad=30&type=-1"
  },
  {
    "Type": "FoodBank",
    "Name": "Redemptorist Center",
    "Phone": "816-931-9942",
    "Address": "207 W Linwood Boulevard",
    "City": "Kansas City",
    "State": "MO",
    "Zipcode": "64111",
    "lat": 39.0673103,
    "lng": -94.5883602,
    "link": "https://harvesters.org/Service-Detail?id=25784&zip=66224&rad=30&type=-1"
  },
  {
    "Type": "FoodBank",
    "Name": "Helping Hands of Odessa",
    "Phone": "816-653-2048",
    "Address": "209 W Mason",
    "City": "Odessa",
    "State": "MO",
    "Zipcode": "64076",
    "lat": 38.9994523,
    "lng": -93.95414989999999,
    "link": "https://harvesters.org/Service-Detail?id=25785&zip=64129&rad=30&type=-1"
  },
  {
    "Type": "FoodBank",
    "Name": "Fishes-N-Loaves",
    "Phone": "816-322-1177",
    "Address": "1315 E Walnut Avenue",
    "City": "Raymore",
    "State": "MO",
    "Zipcode": "64083",
    "lat": 38.801625,
    "lng": -94.4261269,
    "link": "https://harvesters.org/Service-Detail?id=25786&zip=66224&rad=30&type=-1"
  },
  {
    "Type": "FoodBank",
    "Name": "Salvation Army",
    "Phone": "816-241-6485",
    "Address": "6618 E Truman Road",
    "City": "Kansas City",
    "State": "MO",
    "Zipcode": "64126",
    "lat": 39.0940392,
    "lng": -94.5046464,
    "link": "https://harvesters.org/Service-Detail?id=25788&zip=66224&rad=30&type=-1"
  },
  {
    "Type": "FoodBank",
    "Name": "East Hills Village",
    "Phone": "816-786-7641",
    "Address": "7575 Monroe Avenue",
    "City": "Kansas City",
    "State": "MO",
    "Zipcode": "64132",
    "lat": 38.9892219,
    "lng": -94.544069,
    "link": "https://harvesters.org/Service-Detail?id=25789&zip=66224&rad=10&type=1"
  },
  {
    "Type": "FoodBank",
    "Name": "Blue Hills",
    "Phone": "816-523-2833",
    "Address": "10306 Blue Ridge Boulevard",
    "City": "Kansas City",
    "State": "MO",
    "Zipcode": "64134",
    "lat": 38.9372431,
    "lng": -94.5090343,
    "link": "https://harvesters.org/Service-Detail?id=25790&zip=66224&rad=10&type=1"
  },
  {
    "Type": "FoodBank",
    "Name": "Mount Washington Baptist",
    "Phone": "816-254-5688",
    "Address": "9623 Independence Avenue",
    "City": "Independence",
    "State": "MO",
    "Zipcode": "64053",
    "lat": 39.1027054,
    "lng": -94.4627613,
    "link": "https://harvesters.org/Service-Detail?id=25792&zip=66224&rad=30&type=-1"
  },
  {
    "Type": "FoodBank",
    "Name": "Mount Carmel Community",
    "Phone": "913-621-4111",
    "Address": "1130 Troup Avenue",
    "City": "Kansas City",
    "State": "KS",
    "Zipcode": "66104",
    "lat": 39.1275491,
    "lng": -94.63882009999999,
    "link": "https://harvesters.org/Service-Detail?id=25793&zip=66224&rad=30&type=-1"
  },
  {
    "Type": "FoodBank",
    "Name": "Kingsway Ministry Lighthouse",
    "Phone": "816-921-7016",
    "Address": "4920 E 31st Street",
    "City": "Kansas City",
    "State": "MO",
    "Zipcode": "64128",
    "lat": 39.0692307,
    "lng": -94.52662989999999,
    "link": "https://harvesters.org/Service-Detail?id=25794&zip=66224&rad=30&type=-1"
  },
  {
    "Type": "FoodBank",
    "Name": "Central Independence Baptist",
    "Phone": "816-254-9579",
    "Address": "124 W 23rd Street",
    "City": "Independence",
    "State": "MO",
    "Zipcode": "64055",
    "lat": 39.0794266,
    "lng": -94.416742,
    "link": "https://harvesters.org/Service-Detail?id=25795&zip=66224&rad=30&type=-1"
  },
  {
    "Type": "FoodBank",
    "Name": "Good Samaritan Center",
    "Phone": "816-630-2718",
    "Address": "108 S Thompson Avenue",
    "City": "Excelsior Springs",
    "State": "MO",
    "Zipcode": "64024",
    "lat": 39.3421309,
    "lng": -94.225286,
    "link": "https://harvesters.org/Service-Detail?id=25796&zip=64129&rad=30&type=-1"
  },
  {
    "Type": "FoodBank",
    "Name": "Pleasant Green Baptist Church",
    "Phone": "913-371-0231",
    "Address": "340 David L Gray Drive",
    "City": "Kansas City",
    "State": "KS",
    "Zipcode": "66101",
    "lat": 39.1207457,
    "lng": -94.6180012,
    "link": "https://harvesters.org/Service-Detail?id=25797&zip=66224&rad=30&type=-1"
  },
  {
    "Type": "FoodBank",
    "Name": "ReNewed Hope Food Pantry",
    "Phone": " 913-669-4462",
    "Address": "8714 Antioch Road",
    "City": "Overland Park",
    "State": "KS",
    "Zipcode": "66212",
    "lat": 38.9704267,
    "lng": -94.6874284,
    "link": "https://harvesters.org/Service-Detail?id=25798&zip=66224&rad=10&type=1"
  },
  {
    "Type": "FoodBank",
    "Name": "Metropolitan Avenue United",
    "Phone": "913-831-4531",
    "Address": "3730 Metropolitan Avenue",
    "City": "Kansas City",
    "State": "KS",
    "Zipcode": "66106",
    "lat": 39.0734484,
    "lng": -94.6722437,
    "link": "https://harvesters.org/Service-Detail?id=25799&zip=66224&rad=30&type=-1"
  },
  {
    "Type": "FoodBank",
    "Name": "Catholic Charities",
    "Phone": " 913-433-2572",
    "Address": "333 E Poplar Street",
    "City": "Olathe",
    "State": "KS",
    "Zipcode": "66061",
    "lat": 38.88481609999999,
    "lng": -94.81622259999999,
    "link": "https://harvesters.org/Service-Detail?id=25800&zip=66224&rad=30&type=-1"
  },
  {
    "Type": "FoodBank",
    "Name": "Vineyard Church",
    "Phone": "816-734-8100",
    "Address": "12300 NW Arrowhead Trafficway",
    "City": "Kansas City",
    "State": "MO",
    "Zipcode": "64165",
    "lat": 39.316454,
    "lng": -94.58706,
    "link": "https://harvesters.org/Service-Detail?id=25801&zip=64129&rad=30&type=-1"
  },
  {
    "Type": "FoodBank",
    "Name": "Hawthorne Place Resident",
    "Phone": "816-895-9326",
    "Address": "16995 E Dover Lane",
    "City": "Independence",
    "State": "MO",
    "Zipcode": "64056",
    "lat": 39.1144587,
    "lng": -94.3774234,
    "link": "https://harvesters.org/Service-Detail?id=25802&zip=66224&rad=30&type=-1"
  },
  {
    "Type": "FoodBank",
    "Name": "Bridges of Hope",
    "Phone": "913-602-0660",
    "Address": "933 Argentine Boulevard",
    "City": "Kansas City",
    "State": "KS",
    "Zipcode": "66105",
    "lat": 39.0855003,
    "lng": -94.6336953,
    "link": "https://harvesters.org/Service-Detail?id=25803&zip=66224&rad=30&type=-1"
  },
  {
    "Type": "FoodBank",
    "Name": "Linwood SDA",
    "Phone": "816-924-8550",
    "Address": "4300 Linwood Boulevard",
    "City": "Kansas City",
    "State": "MO",
    "Zipcode": "64128",
    "lat": 39.0677923,
    "lng": -94.5330767,
    "link": "https://harvesters.org/Service-Detail?id=25804&zip=66224&rad=30&type=-1"
  },
  {
    "Type": "FoodBank",
    "Name": "Agape Multicultural SDA",
    "Phone": "913-306-4455",
    "Address": "1117 North 28th Street",
    "City": "Kansas City",
    "State": "KS",
    "Zipcode": "66102",
    "lat": 39.1174328,
    "lng": -94.6600304,
    "link": "https://harvesters.org/Service-Detail?id=25805&zip=66224&rad=30&type=-1"
  },
  {
    "Type": "FoodBank",
    "Name": "Saint Augustine Episcopal",
    "Phone": "816-921-8534",
    "Address": "2732 Benton Boulevard",
    "City": "Kansas City",
    "State": "MO",
    "Zipcode": "64128",
    "lat": 39.0756424,
    "lng": -94.5493286,
    "link": "https://harvesters.org/Service-Detail?id=25806&zip=66224&rad=30&type=-1"
  },
  {
    "Type": "FoodBank",
    "Name": "Our Savior Lutheran Church",
    "Phone": "913-236-6228",
    "Address": "4153 Rainbow Boulevard",
    "City": "Kansas City",
    "State": "KS",
    "Zipcode": "66103",
    "lat": 39.0515323,
    "lng": -94.61150699999999,
    "link": "https://harvesters.org/Service-Detail?id=25807&zip=66224&rad=30&type=-1"
  },
  {
    "Type": "FoodBank",
    "Name": "Gethsemane Baptist Church",
    "Phone": "816-286-2575",
    "Address": "3800 E 73rd Street",
    "City": "Kansas City",
    "State": "MO",
    "Zipcode": "64132",
    "lat": 38.9940125,
    "lng": -94.5427205,
    "link": "https://harvesters.org/Service-Detail?id=25808&zip=66224&rad=10&type=1"
  },
  {
    "Type": "FoodBank",
    "Name": "WCMCAA Raymore Office",
    "Phone": "816-322-0502",
    "Address": "208 W Walnut Street",
    "City": "Raymore",
    "State": "MO",
    "Zipcode": "64083",
    "lat": 38.8046717,
    "lng": -94.454593,
    "link": "https://harvesters.org/Service-Detail?id=25810&zip=66224&rad=30&type=-1"
  },
  {
    "Type": "FoodBank",
    "Name": "Open Arms",
    "Phone": "913-744-1177",
    "Address": "12480 S Black Bob Road",
    "City": "Olathe",
    "State": "KS",
    "Zipcode": "66062",
    "lat": 38.904673,
    "lng": -94.7626571,
    "link": "https://harvesters.org/Service-Detail?id=25812&zip=66224&rad=10&type=1"
  },
  {
    "Type": "FoodBank",
    "Name": "Grace United Church",
    "Phone": "816-231-5745",
    "Address": "811 Benton Boulevard",
    "City": "Kansas City",
    "State": "MO",
    "Zipcode": "64124",
    "lat": 39.1027315,
    "lng": -94.54349119999999,
    "link": "https://harvesters.org/Service-Detail?id=25813&zip=66224&rad=30&type=-1"
  },
  {
    "Type": "FoodBank",
    "Name": "In As Much Ministry",
    "Phone": "816-781-6357",
    "Address": "2050 Plumbers Way 190",
    "City": "Liberty",
    "State": "MO",
    "Zipcode": "64068",
    "lat": 39.2545507,
    "lng": -94.45427459999999,
    "link": "https://harvesters.org/Service-Detail?id=25814&zip=64129&rad=30&type=-1"
  },
  {
    "Type": "FoodBank",
    "Name": "Swope Parkway Church of Christ - Please note this agency is closed until April 1.",
    "Phone": "816- 444-9511",
    "Address": "5620 Swope Parkway",
    "City": "Kansas City",
    "State": "MO",
    "Zipcode": "64130",
    "lat": 39.0238375,
    "lng": -94.5425795,
    "link": "https://harvesters.org/Service-Detail?id=25815&zip=66224&rad=30&type=-1"
  },
  {
    "Type": "FoodBank",
    "Name": "Victory Baptist Church",
    "Phone": "913-755-4678",
    "Address": "212 E Main Street",
    "City": "Osawatomie",
    "State": "KS",
    "Zipcode": "66064",
    "lat": 38.5006086,
    "lng": -94.9394342,
    "link": "https://harvesters.org/Service-Detail?id=25816&zip=66051&rad=30&type=-1"
  },
  {
    "Type": "FoodBank",
    "Name": "Tri-Ko  Inc",
    "Phone": "913-755-3025",
    "Address": "301 First Street",
    "City": "Osawatomie",
    "State": "KS",
    "Zipcode": "66064",
    "lat": 38.5010608,
    "lng": -94.94134129999999,
    "link": "https://harvesters.org/Service-Detail?id=25818&zip=66051&rad=30&type=-1"
  },
  {
    "Type": "FoodBank",
    "Name": "New Beginning Apostolic",
    "Phone": "816-231-7101",
    "Address": "200 N Bales",
    "City": "Kansas City",
    "State": "MO",
    "Zipcode": "64123",
    "lat": 39.114542,
    "lng": -94.54095199999999,
    "link": "https://harvesters.org/Service-Detail?id=25819&zip=66224&rad=30&type=-1"
  },
  {
    "Type": "FoodBank",
    "Name": "Manna Fellowship Church - Please note this agency is closed until the end of March.",
    "Phone": "816-210-2317",
    "Address": "100 Electronic Parkway",
    "City": "Belton",
    "State": "MO",
    "Zipcode": "64012",
    "lat": 38.8243744,
    "lng": -94.5330333,
    "link": "https://harvesters.org/Service-Detail?id=25820&zip=66224&rad=10&type=1"
  },
  {
    "Type": "FoodBank",
    "Name": "Christian Charity Church",
    "Phone": "816-966-0173",
    "Address": "11000 Ruskin Way",
    "City": "Kansas City",
    "State": "MO",
    "Zipcode": "64134",
    "lat": 38.9231154,
    "lng": -94.5048879,
    "link": "https://harvesters.org/Service-Detail?id=25821&zip=66224&rad=10&type=1"
  },
  {
    "Type": "FoodBank",
    "Name": "Raytown Emergency Assistance",
    "Phone": "816-356-0054",
    "Address": "9300 E 75th Street",
    "City": "Raytown",
    "State": "MO",
    "Zipcode": "64138",
    "lat": 38.9873265,
    "lng": -94.4728645,
    "link": "https://harvesters.org/Service-Detail?id=25822&zip=66224&rad=30&type=-1"
  },
  {
    "Type": "FoodBank",
    "Name": "Odessa Community Service",
    "Phone": "816-230-7558",
    "Address": "212 S 2nd Street",
    "City": "Odessa",
    "State": "MO",
    "Zipcode": "64076",
    "lat": 38.9986531,
    "lng": -93.95342289999999,
    "link": "https://harvesters.org/Service-Detail?id=25823&zip=64129&rad=30&type=-1"
  },
  {
    "Type": "FoodBank",
    "Name": "Mimi's Pantry",
    "Phone": "816-735-0220",
    "Address": "2255 NW Vivion Road",
    "City": "Riverside",
    "State": "MO",
    "Zipcode": "64150",
    "lat": 39.1803248,
    "lng": -94.60477159999999,
    "link": "https://harvesters.org/Service-Detail?id=25824&zip=66224&rad=30&type=-1"
  },
  {
    "Type": "FoodBank",
    "Name": "Overland Park Church of Christ",
    "Phone": "913-696-1516",
    "Address": "13400 W 119th Street",
    "City": "Overland Park",
    "State": "KS",
    "Zipcode": "66213",
    "lat": 38.913459,
    "lng": -94.74156599999999,
    "link": "https://harvesters.org/Service-Detail?id=25825&zip=66224&rad=10&type=1"
  },
  {
    "Type": "FoodBank",
    "Name": "Grandview Assistance Program",
    "Phone": "816-256-8522",
    "Address": "1121 Main Street",
    "City": "Grandview",
    "State": "MO",
    "Zipcode": "64030",
    "lat": 38.8890184,
    "lng": -94.5316237,
    "link": "https://harvesters.org/Service-Detail?id=25826&zip=66224&rad=10&type=1"
  },
  {
    "Type": "FoodBank",
    "Name": "Grace Baptist Church",
    "Phone": "816-363-0304",
    "Address": "8524 Blue Ridge Boulevard",
    "City": "Kansas City",
    "State": "MO",
    "Zipcode": "64138",
    "lat": 38.9696002,
    "lng": -94.4969962,
    "link": "https://harvesters.org/Service-Detail?id=25827&zip=66224&rad=30&type=-1"
  },
  {
    "Type": "FoodBank",
    "Name": "Roswell Pantry",
    "Phone": "913-621-0435",
    "Address": "3004 N 27th Street",
    "City": "Kansas City",
    "State": "KS",
    "Zipcode": "66104",
    "lat": 39.1399945,
    "lng": -94.65944510000001,
    "link": "https://harvesters.org/Service-Detail?id=25828&zip=66224&rad=30&type=-1"
  },
  {
    "Type": "FoodBank",
    "Name": "Heart of America",
    "Phone": "816-356-6380",
    "Address": "7600 Blue Ridge Boulevard",
    "City": "Kansas City",
    "State": "MO",
    "Zipcode": "64138",
    "lat": 38.9869194,
    "lng": -94.4834431,
    "link": "https://harvesters.org/Service-Detail?id=25829&zip=66224&rad=30&type=-1"
  },
  {
    "Type": "FoodBank",
    "Name": "Miracle Temple Pentecostal",
    "Phone": "816-924-0761",
    "Address": "3301 Indiana Avenue",
    "City": "Kansas City",
    "State": "MO",
    "Zipcode": "64128",
    "lat": 39.065809,
    "lng": -94.54362689999999,
    "link": "https://harvesters.org/Service-Detail?id=25830&zip=66224&rad=30&type=-1"
  },
  {
    "Type": "FoodBank",
    "Name": "Islamic Center of",
    "Phone": "816-763-2267",
    "Address": "8501 E 99th Street",
    "City": "Kansas City",
    "State": "MO",
    "Zipcode": "64134",
    "lat": 38.943808,
    "lng": -94.4910992,
    "link": "https://harvesters.org/Service-Detail?id=25831&zip=66224&rad=10&type=1"
  },
  {
    "Type": "FoodBank",
    "Name": "Cross Lines Community",
    "Phone": "913-281-3388",
    "Address": "736 Shawnee Avenue",
    "City": "Kansas City",
    "State": "KS",
    "Zipcode": "66105",
    "lat": 39.0861203,
    "lng": -94.6277843,
    "link": "https://harvesters.org/Service-Detail?id=25832&zip=66224&rad=30&type=-1"
  },
  {
    "Type": "FoodBank",
    "Name": "Hope City",
    "Phone": "816-241-9931",
    "Address": "5101 E 24th Street",
    "City": "Kansas City",
    "State": "MO",
    "Zipcode": "64127",
    "lat": 39.0816265,
    "lng": -94.5232472,
    "link": "https://harvesters.org/Service-Detail?id=25833&zip=66224&rad=30&type=-1"
  },
  {
    "Type": "FoodBank",
    "Name": "Village Church Food Pantry - Please note the agency is closed until further notice due to COVID-19",
    "Phone": "913-671-2314",
    "Address": "9960 Mission Road",
    "City": "Overland Park",
    "State": "KS",
    "Zipcode": "66206",
    "lat": 38.948021,
    "lng": -94.63091999999999,
    "link": "https://harvesters.org/Service-Detail?id=25834&zip=66224&rad=10&type=1"
  },
  {
    "Type": "FoodBank",
    "Name": "International Youth Fellowship",
    "Phone": "816-437-5440",
    "Address": "7900 Jarboe Street",
    "City": "Kansas City",
    "State": "MO",
    "Zipcode": "64114",
    "lat": 38.9849205,
    "lng": -94.6030309,
    "link": "https://harvesters.org/Service-Detail?id=25835&zip=66224&rad=10&type=1"
  },
  {
    "Type": "FoodBank",
    "Name": "True Faith Outreach",
    "Phone": "816-923-7262",
    "Address": "3206 E 27th Street",
    "City": "Kansas City",
    "State": "MO",
    "Zipcode": "64127",
    "lat": 39.0771088,
    "lng": -94.54547989999999,
    "link": "https://harvesters.org/Service-Detail?id=25836&zip=66224&rad=30&type=-1"
  },
  {
    "Type": "FoodBank",
    "Name": "Christ The King Church",
    "Phone": "816-363-4888",
    "Address": "8510 Wornall Road",
    "City": "Kansas City",
    "State": "MO",
    "Zipcode": "64114",
    "lat": 38.9739103,
    "lng": -94.5955774,
    "link": "https://harvesters.org/Service-Detail?id=25837&zip=66224&rad=10&type=1"
  },
  {
    "Type": "FoodBank",
    "Name": "Saint Charles Borromeo",
    "Phone": "816-468-5153",
    "Address": "900 NE Shady Lane Drive",
    "City": "Kansas City",
    "State": "MO",
    "Zipcode": "64118",
    "lat": 39.2113144,
    "lng": -94.570403,
    "link": "https://harvesters.org/Service-Detail?id=25838&zip=66224&rad=30&type=-1"
  },
  {
    "Type": "FoodBank",
    "Name": "Saint Paul's Episcopal Church",
    "Phone": "913-321-3535",
    "Address": "1300 N 18th Street",
    "City": "Kansas City",
    "State": "KS",
    "Zipcode": "66102",
    "lat": 39.1188504,
    "lng": -94.6498568,
    "link": "https://harvesters.org/Service-Detail?id=25839&zip=66224&rad=30&type=-1"
  },
  {
    "Type": "FoodBank",
    "Name": "New Life City Church",
    "Phone": "816-421-7729",
    "Address": "1717 McGee Street",
    "City": "Kansas City",
    "State": "MO",
    "Zipcode": "64108",
    "lat": 39.0926595,
    "lng": -94.5798137,
    "link": "https://harvesters.org/Service-Detail?id=25840&zip=66224&rad=30&type=-1"
  },
  {
    "Type": "FoodBank",
    "Name": "Tabitha's House Food Pantry",
    "Phone": "816-353-8758",
    "Address": "9301 E 87th Street",
    "City": "Raytown",
    "State": "MO",
    "Zipcode": "64138",
    "lat": 38.9650706,
    "lng": -94.4742225,
    "link": "https://harvesters.org/Service-Detail?id=25841&zip=66224&rad=30&type=-1"
  },
  {
    "Type": "FoodBank",
    "Name": "Salvation Army",
    "Phone": "816-452-5663",
    "Address": "5306 North Oak Trafficway",
    "City": "Kansas City",
    "State": "MO",
    "Zipcode": "64118",
    "lat": 39.189174,
    "lng": -94.5776772,
    "link": "https://harvesters.org/Service-Detail?id=25842&zip=66224&rad=30&type=-1"
  },
  {
    "Type": "FoodBank",
    "Name": "Saint James United Methodist",
    "Phone": "816-444-5588",
    "Address": "5540 Wayne Avenue",
    "City": "Kansas City",
    "State": "MO",
    "Zipcode": "64110",
    "lat": 39.0256012,
    "lng": -94.5671979,
    "link": "https://harvesters.org/Service-Detail?id=25843&zip=66224&rad=30&type=-1"
  },
  {
    "Type": "FoodBank",
    "Name": "Project Suppertime",
    "Phone": "816-252-7977",
    "Address": "1800 S Northern Boulevard",
    "City": "Independence",
    "State": "MO",
    "Zipcode": "64052",
    "lat": 39.0874883,
    "lng": -94.4509736,
    "link": "https://harvesters.org/Service-Detail?id=25845&zip=66224&rad=30&type=-1"
  },
  {
    "Type": "FoodBank",
    "Name": "CSL - Farview Pantry",
    "Phone": "816-719-6071",
    "Address": "18109 East 12th North",
    "City": "Independence",
    "State": "MO",
    "Zipcode": "64056",
    "lat": 39.1244819,
    "lng": -94.36353849999999,
    "link": "https://harvesters.org/Service-Detail?id=25846&zip=66224&rad=30&type=-1"
  },
  {
    "Type": "FoodBank",
    "Name": "First Christian Church",
    "Phone": "913-764-3555",
    "Address": "200 E Loula Street",
    "City": "Olathe",
    "State": "KS",
    "Zipcode": "66061",
    "lat": 38.8807585,
    "lng": -94.8178421,
    "link": "https://harvesters.org/Service-Detail?id=25848&zip=66224&rad=30&type=-1"
  },
  {
    "Type": "FoodBank",
    "Name": "Red Bridge Pantry",
    "Phone": "816-942-1866",
    "Address": "100 W Red Bridge",
    "City": "Kansas City",
    "State": "MO",
    "Zipcode": "64114",
    "lat": 38.9270812,
    "lng": -94.59444839999999,
    "link": "https://harvesters.org/Service-Detail?id=25849&zip=66224&rad=10&type=1"
  },
  {
    "Type": "FoodBank",
    "Name": "Catholic Charities",
    "Phone": " 913-433-2100",
    "Address": "2220 Central Avenue",
    "City": "Kansas City",
    "State": "KS",
    "Zipcode": "66102",
    "lat": 39.1085223,
    "lng": -94.65500460000001,
    "link": "https://harvesters.org/Service-Detail?id=25850&zip=66224&rad=30&type=-1"
  },
  {
    "Type": "FoodBank",
    "Name": "Nowlin Hall",
    "Phone": "816-405-8797",
    "Address": "1905 Hardesty Avenue",
    "City": "Kansas City",
    "State": "MO",
    "Zipcode": "64127",
    "lat": 39.0887328,
    "lng": -94.51772559999999,
    "link": "https://harvesters.org/Service-Detail?id=25851&zip=66224&rad=30&type=-1"
  },
  {
    "Type": "FoodBank",
    "Name": "Morning Star Baptist Church",
    "Phone": "816-923-3559",
    "Address": "2411 E 27th Street",
    "City": "Kansas City",
    "State": "MO",
    "Zipcode": "64127",
    "lat": 39.076851,
    "lng": -94.55396499999999,
    "link": "https://harvesters.org/Service-Detail?id=25852&zip=66224&rad=30&type=-1"
  },
  {
    "Type": "FoodBank",
    "Name": "Stilwell Baptist Caring",
    "Phone": "913-897-2261",
    "Address": "19950 Broadmoor Lane",
    "City": "Stilwell",
    "State": "KS",
    "Zipcode": "66085",
    "lat": 38.7665865,
    "lng": -94.66568550000001,
    "link": "https://harvesters.org/Service-Detail?id=25853&zip=66224&rad=10&type=1"
  },
  {
    "Type": "FoodBank",
    "Name": "Colonial Presbyterian Church",
    "Phone": "816-501-3040",
    "Address": "9500 Wornall Road",
    "City": "Kansas City",
    "State": "MO",
    "Zipcode": "64114",
    "lat": 38.9554723,
    "lng": -94.59686769999999,
    "link": "https://harvesters.org/Service-Detail?id=25854&zip=66224&rad=10&type=1"
  },
  {
    "Type": "FoodBank",
    "Name": "Saint James Lutheran Church",
    "Phone": "816-452-1018",
    "Address": "1104 NE Vivion Road",
    "City": "Kansas City",
    "State": "MO",
    "Zipcode": "64118",
    "lat": 39.1814816,
    "lng": -94.5660292,
    "link": "https://harvesters.org/Service-Detail?id=25855&zip=66224&rad=30&type=-1"
  },
  {
    "Type": "FoodBank",
    "Name": "Saint Vincent De Paul North",
    "Phone": "816-741-8661 ",
    "Address": "7207 NW 9 Highway",
    "City": "Kansas City",
    "State": "MO",
    "Zipcode": "64152",
    "lat": 39.2193047,
    "lng": -94.66317459999999,
    "link": "https://harvesters.org/Service-Detail?id=25856&zip=66224&rad=30&type=-1"
  },
  {
    "Type": "FoodBank",
    "Name": "Cornerstone Baptist Church",
    "Phone": "816-808-3101",
    "Address": "501 N Randolph Road",
    "City": "Randolph",
    "State": "MO",
    "Zipcode": "64161",
    "lat": 39.1598626,
    "lng": -94.495322,
    "link": "https://harvesters.org/Service-Detail?id=25857&zip=66224&rad=30&type=-1"
  },
  {
    "Type": "FoodBank",
    "Name": "Kansas City Church Inc - Please note this agency is closed until April 1.",
    "Phone": "816-781-7559",
    "Address": "7700 N Church Road",
    "City": "Kansas City",
    "State": "MO",
    "Zipcode": "64158",
    "lat": 39.2336209,
    "lng": -94.46511559999999,
    "link": "https://harvesters.org/Service-Detail?id=25858&zip=66224&rad=30&type=-1"
  },
  {
    "Type": "FoodBank",
    "Name": "First Spanish Pantry",
    "Phone": "913-362-5207",
    "Address": "3040 S 51st Street",
    "City": "Kansas City",
    "State": "KS",
    "Zipcode": "66106",
    "lat": 39.0460373,
    "lng": -94.6964362,
    "link": "https://harvesters.org/Service-Detail?id=25859&zip=66224&rad=30&type=-1"
  },
  {
    "Type": "FoodBank",
    "Name": "Serve the World Food Pantry",
    "Phone": "816-942-1414",
    "Address": "1414 E 103rd Street",
    "City": "Kansas City",
    "State": "MO",
    "Zipcode": "64131",
    "lat": 38.9411247,
    "lng": -94.5727002,
    "link": "https://harvesters.org/Service-Detail?id=25861&zip=66224&rad=10&type=1"
  },
  {
    "Type": "FoodBank",
    "Name": "Centennial United Methodist",
    "Phone": "816-421-5527",
    "Address": "1834 Woodland Avenue",
    "City": "Kansas City",
    "State": "MO",
    "Zipcode": "64108",
    "lat": 39.0899681,
    "lng": -94.56143519999999,
    "link": "https://harvesters.org/Service-Detail?id=25862&zip=66224&rad=30&type=-1"
  },
  {
    "Type": "FoodBank",
    "Name": "Salvation Army",
    "Phone": "816-756-2769",
    "Address": "101 W Linwood Boulevard",
    "City": "Kansas City",
    "State": "MO",
    "Zipcode": "64111",
    "lat": 39.0675234,
    "lng": -94.58707009999999,
    "link": "https://harvesters.org/Service-Detail?id=25863&zip=66224&rad=30&type=-1"
  },
  {
    "Type": "FoodBank",
    "Name": "Saint Peter Christian",
    "Phone": "913-321-8220",
    "Address": "1419 N 8th Street",
    "City": "Kansas City",
    "State": "KS",
    "Zipcode": "66101",
    "lat": 39.1202595,
    "lng": -94.6292569,
    "link": "https://harvesters.org/Service-Detail?id=25864&zip=66224&rad=30&type=-1"
  },
  {
    "Type": "FoodBank",
    "Name": "Southside First Baptist Church",
    "Phone": "816-965-5396",
    "Address": "2015 E 50th Street",
    "City": "Kansas City",
    "State": "MO",
    "Zipcode": "64130",
    "lat": 39.0356423,
    "lng": -94.56087099999999,
    "link": "https://harvesters.org/Service-Detail?id=25865&zip=66224&rad=30&type=-1"
  },
  {
    "Type": "FoodBank",
    "Name": "Friendship Baptist Church",
    "Phone": "816-861-3252",
    "Address": "3530 Chelsea Drive",
    "City": "Kansas City",
    "State": "MO",
    "Zipcode": "64128",
    "lat": 39.05966799999999,
    "lng": -94.5270728,
    "link": "https://harvesters.org/Service-Detail?id=25866&zip=66224&rad=30&type=-1"
  },
  {
    "Type": "FoodBank",
    "Name": "Zion Grove M.B.C.",
    "Phone": "816-924-1818",
    "Address": "2801 Swope Parkway",
    "City": "Kansas City",
    "State": "MO",
    "Zipcode": "64130",
    "lat": 39.0382275,
    "lng": -94.55188559999999,
    "link": "https://harvesters.org/Service-Detail?id=25867&zip=66224&rad=30&type=-1"
  },
  {
    "Type": "FoodBank",
    "Name": "Emmanuel Family & Child",
    "Phone": "816-921-3164",
    "Address": "2416 Swope Parkway",
    "City": "Kansas City",
    "State": "MO",
    "Zipcode": "64130",
    "lat": 39.0401382,
    "lng": -94.5560356,
    "link": "https://harvesters.org/Service-Detail?id=25868&zip=66224&rad=30&type=-1"
  },
  {
    "Type": "FoodBank",
    "Name": "Metropolitan Missionary B.C.",
    "Phone": "816-923-3689",
    "Address": "2310 E Linwood Boulevard",
    "City": "Kansas City",
    "State": "MO",
    "Zipcode": "64109",
    "lat": 39.0685034,
    "lng": -94.5557939,
    "link": "https://harvesters.org/Service-Detail?id=25870&zip=66224&rad=30&type=-1"
  },
  {
    "Type": "FoodBank",
    "Name": "HOPE wrx",
    "Phone": "816-729-2095",
    "Address": "900 NE Vivion Road",
    "City": "Kansas City",
    "State": "MO",
    "Zipcode": "64118",
    "lat": 39.181902,
    "lng": -94.5687966,
    "link": "https://harvesters.org/Service-Detail?id=25871&zip=66224&rad=30&type=-1"
  },
  {
    "Type": "FoodBank",
    "Name": "Hope Network Raytown - Please note this agency is closed until April.",
    "Phone": "816-778-1105",
    "Address": "10500 E 350 Highway",
    "City": "Raytown",
    "State": "MO",
    "Zipcode": "64138",
    "lat": 38.9849856,
    "lng": -94.4565637,
    "link": "https://harvesters.org/Service-Detail?id=25872&zip=66224&rad=30&type=-1"
  },
  {
    "Type": "FoodBank",
    "Name": "Just Food Warehouse",
    "Phone": "785-856-7030",
    "Address": "1000 East 11th Street",
    "City": "Lawrence",
    "State": "KS",
    "Zipcode": "66046",
    "lat": 38.9649175,
    "lng": -95.2231196,
    "link": "https://harvesters.org/Service-Detail?id=25873&zip=66051&rad=30&type=-1"
  },
  {
    "Type": "FoodBank",
    "Name": "Hope Rocks",
    "Phone": "816-214-4900",
    "Address": "534 E 99th Street",
    "City": "Kansas City",
    "State": "MO",
    "Zipcode": "64131",
    "lat": 38.948695,
    "lng": -94.58421399999999,
    "link": "https://harvesters.org/Service-Detail?id=25874&zip=66224&rad=10&type=1"
  },
  {
    "Type": "FoodBank",
    "Name": "Kingsway Ministry North",
    "Phone": "816-252-7710",
    "Address": "2310 Prospect Avenue",
    "City": "Kansas City",
    "State": "MO",
    "Zipcode": "64127",
    "lat": 39.0839259,
    "lng": -94.55238930000002,
    "link": "https://harvesters.org/Service-Detail?id=25875&zip=66224&rad=30&type=-1"
  },
  {
    "Type": "FoodBank",
    "Name": "Kingdom Word Ministries",
    "Phone": "816-921-2293",
    "Address": "3301 Cypress",
    "City": "Kansas City",
    "State": "MO",
    "Zipcode": "64128",
    "lat": 39.0653316,
    "lng": -94.5308182,
    "link": "https://harvesters.org/Service-Detail?id=25876&zip=66224&rad=30&type=-1"
  },
  {
    "Type": "FoodBank",
    "Name": "A Place of Praise",
    "Phone": "816-254-4357",
    "Address": "4804 Noland Suite F",
    "City": "Kansas City",
    "State": "MO",
    "Zipcode": "64133",
    "lat": 39.0336912,
    "lng": -94.4180481,
    "link": "https://harvesters.org/Service-Detail?id=25877&zip=66224&rad=30&type=-1"
  },
  {
    "Type": "FoodBank",
    "Name": "Trinity Interfaith Food Pantry",
    "Phone": "785-843-2207",
    "Address": "1027 Vermont Street",
    "City": "Lawrence",
    "State": "KS",
    "Zipcode": "66044",
    "lat": 38.9646378,
    "lng": -95.2374097,
    "link": "https://harvesters.org/Service-Detail?id=25878&zip=66051&rad=30&type=-1"
  },
  {
    "Type": "FoodBank",
    "Name": "Salvation Army",
    "Phone": "785-843-4188",
    "Address": "946 New Hampshire Street",
    "City": "Lawrence",
    "State": "KS",
    "Zipcode": "66046",
    "lat": 38.9659162,
    "lng": -95.2344167,
    "link": "https://harvesters.org/Service-Detail?id=25879&zip=66051&rad=30&type=-1"
  },
  {
    "Type": "FoodBank",
    "Name": "Bainbridge Apartments",
    "Phone": "816-807-5522",
    "Address": "908 E Armour Boulevard",
    "City": "Kansas City",
    "State": "MO",
    "Zipcode": "64109",
    "lat": 39.0635802,
    "lng": -94.57368679999999,
    "link": "https://harvesters.org/Service-Detail?id=25880&zip=66224&rad=30&type=-1"
  },
  {
    "Type": "FoodBank",
    "Name": "Giving Hope KC",
    "Phone": "913-291-9031",
    "Address": "6640 State Avenue",
    "City": "Kansas City",
    "State": "KS",
    "Zipcode": "66102",
    "lat": 39.1174728,
    "lng": -94.7321992,
    "link": "https://harvesters.org/Service-Detail?id=25881&zip=66224&rad=30&type=-1"
  },
  {
    "Type": "FoodBank",
    "Name": "Saint James UMC-Renaissance",
    "Phone": "816-444-5588",
    "Address": "7205 Longview Road",
    "City": "Kansas City",
    "State": "MO",
    "Zipcode": "64134",
    "lat": 38.9146847,
    "lng": -94.5069628,
    "link": "https://harvesters.org/Service-Detail?id=25882&zip=66224&rad=10&type=1"
  },
  {
    "Type": "FoodBank",
    "Name": "Christ First Ministries",
    "Phone": "913-400-1188",
    "Address": "229 N Neconi Avenue",
    "City": "Bonner Springs",
    "State": "KS",
    "Zipcode": "66012",
    "lat": 39.0600108,
    "lng": -94.8865517,
    "link": "https://harvesters.org/Service-Detail?id=25883&zip=66224&rad=30&type=-1"
  },
  {
    "Type": "FoodBank",
    "Name": "Woods Chapel",
    "Phone": "816-795-8848 ",
    "Address": "4725 Lakewood Way",
    "City": "Lees Summit",
    "State": "MO",
    "Zipcode": "64064",
    "lat": 38.9976758,
    "lng": -94.35509739999999,
    "link": "https://harvesters.org/Service-Detail?id=25885&zip=66224&rad=30&type=-1"
  },
  {
    "Type": "FoodBank",
    "Name": "Catholic Charities",
    "Phone": "913-433-2100",
    "Address": "1708 Steele Road",
    "City": "Kansas City",
    "State": "KS",
    "Zipcode": "66106",
    "lat": 39.0626876,
    "lng": -94.64828399999999,
    "link": "https://harvesters.org/Service-Detail?id=25886&zip=66224&rad=30&type=-1"
  },
  {
    "Type": "FoodBank",
    "Name": "Second Baptist Church",
    "Phone": "913-780-5553",
    "Address": "331 N Kansas Avenue",
    "City": "Olathe",
    "State": "KS",
    "Zipcode": "66061",
    "lat": 38.8862515,
    "lng": -94.8209191,
    "link": "https://harvesters.org/Service-Detail?id=25888&zip=66224&rad=30&type=-1"
  },
  {
    "Type": "FoodBank",
    "Name": "Catholic Charities",
    "Phone": "816-659-8270",
    "Address": "4001 Blue Parkway Suite 250",
    "City": "Kansas City",
    "State": "MO",
    "Zipcode": "64130",
    "lat": 39.0345715,
    "lng": -94.5372221,
    "link": "https://harvesters.org/Service-Detail?id=25890&zip=66224&rad=30&type=-1"
  },
  {
    "Type": "FoodBank",
    "Name": "Second Missionary Baptist",
    "Phone": "816-763-3999 ",
    "Address": "5111 Harry S Truman Drive",
    "City": "Grandview",
    "State": "MO",
    "Zipcode": "64030",
    "lat": 38.897293,
    "lng": -94.532558,
    "link": "https://harvesters.org/Service-Detail?id=25891&zip=66224&rad=10&type=1"
  },
  {
    "Type": "FoodBank",
    "Name": "Galilee M B C",
    "Phone": "816-231-6894",
    "Address": "3601 E 19th Street",
    "City": "Kansas City",
    "State": "MO",
    "Zipcode": "64127",
    "lat": 39.0886886,
    "lng": -94.540082,
    "link": "https://harvesters.org/Service-Detail?id=25892&zip=66224&rad=30&type=-1"
  },
  {
    "Type": "FoodBank",
    "Name": "Blue Ridge Baptist Church",
    "Phone": "816-353-8140",
    "Address": "9320 E 35th Street South",
    "City": "Independence",
    "State": "MO",
    "Zipcode": "64052",
    "lat": 39.0598503,
    "lng": -94.4685099,
    "link": "https://harvesters.org/Service-Detail?id=25893&zip=66224&rad=30&type=-1"
  },
  {
    "Type": "FoodBank",
    "Name": "New Start",
    "Phone": "816-472-5664  ",
    "Address": "3511 Forest Avenue",
    "City": "Kansas City",
    "State": "MO",
    "Zipcode": "64109",
    "lat": 39.0627223,
    "lng": -94.5703018,
    "link": "https://harvesters.org/Service-Detail?id=25894&zip=66224&rad=30&type=-1"
  },
  {
    "Type": "FoodBank",
    "Name": "Helping Hands Pantry",
    "Phone": "816-804-3511",
    "Address": "200 W Lone Jack Lee&apos;s Summit Road",
    "City": "Lone Jack",
    "State": "MO",
    "Zipcode": "64070",
    "lat": 38.8723648,
    "lng": -94.17599469999999,
    "link": "https://harvesters.org/Service-Detail?id=25895&zip=66224&rad=30&type=-1"
  },
  {
    "Type": "FoodBank",
    "Name": "Vineyard Neighborhood",
    "Phone": "816-921-5303",
    "Address": "4301 E 43rd Street",
    "City": "Kansas City",
    "State": "MO",
    "Zipcode": "64130",
    "lat": 39.0473516,
    "lng": -94.5340604,
    "link": "https://harvesters.org/Service-Detail?id=25896&zip=66224&rad=30&type=-1"
  },
  {
    "Type": "FoodBank",
    "Name": "Young Memorial Church",
    "Phone": "913-321-5526",
    "Address": "2401 N 9th Street",
    "City": "Kansas City",
    "State": "KS",
    "Zipcode": "66101",
    "lat": 39.1330226,
    "lng": -94.6322545,
    "link": "https://harvesters.org/Service-Detail?id=25897&zip=66224&rad=30&type=-1"
  },
  {
    "Type": "FoodBank",
    "Name": "Palestine Missionary Baptist",
    "Phone": "816-921-6009",
    "Address": "3619 E 35th Street",
    "City": "Kansas City",
    "State": "MO",
    "Zipcode": "64128",
    "lat": 39.0615677,
    "lng": -94.5409279,
    "link": "https://harvesters.org/Service-Detail?id=25898&zip=66224&rad=30&type=-1"
  },
  {
    "Type": "FoodBank",
    "Name": "Overland Park Christian Church",
    "Phone": "913-677-4646",
    "Address": "7600 W 75 Street",
    "City": "Overland Park",
    "State": "KS",
    "Zipcode": "66204",
    "lat": 38.9937502,
    "lng": -94.67410629999999,
    "link": "https://harvesters.org/Service-Detail?id=25899&zip=66224&rad=10&type=1"
  },
  {
    "Type": "FoodBank",
    "Name": "Saint Paul's Pantry (KCMO)",
    "Phone": "816-292-8148",
    "Address": "11 E 40th Street",
    "City": "Kansas City",
    "State": "MO",
    "Zipcode": "64111",
    "lat": 39.0540605,
    "lng": -94.5856644,
    "link": "https://harvesters.org/Service-Detail?id=25900&zip=66224&rad=30&type=-1"
  },
  {
    "Type": "FoodBank",
    "Name": "Englewood Baptist Church",
    "Phone": "816-453-0975",
    "Address": "1900 NE Englewood Road",
    "City": "Kansas City",
    "State": "MO",
    "Zipcode": "64118",
    "lat": 39.196247,
    "lng": -94.5574862,
    "link": "https://harvesters.org/Service-Detail?id=25901&zip=66224&rad=30&type=-1"
  },
  {
    "Type": "FoodBank",
    "Name": "North Kansas City YMCA - Please note the agency is closed the week of March 16",
    "Phone": "816-300-0531",
    "Address": "1999 Iron Street",
    "City": "North Kansas City",
    "State": "MO",
    "Zipcode": "64116",
    "lat": 39.1425796,
    "lng": -94.5704221,
    "link": "https://harvesters.org/Service-Detail?id=25905&zip=66224&rad=30&type=-1"
  },
  {
    "Type": "FoodBank",
    "Name": "Meet The Need",
    "Phone": "816-630-5221",
    "Address": "1302 N Jesse James Road",
    "City": "Excelsior Springs",
    "State": "MO",
    "Zipcode": "64024",
    "lat": 39.35869,
    "lng": -94.2359788,
    "link": "https://harvesters.org/Service-Detail?id=25907&zip=64129&rad=30&type=-1"
  },
  {
    "Type": "FoodBank",
    "Name": "New Life Assembly of God",
    "Phone": "785-249-9375",
    "Address": "118 5th Street",
    "City": "Baldwin City",
    "State": "KS",
    "Zipcode": "66006",
    "lat": 38.7815494,
    "lng": -95.1845551,
    "link": "https://harvesters.org/Service-Detail?id=25910&zip=66051&rad=30&type=-1"
  },
  {
    "Type": "FoodBank",
    "Name": "Shawnee Community Services",
    "Phone": "913-268-7746",
    "Address": "11110 W 67th",
    "City": "Shawnee",
    "State": "KS",
    "Zipcode": "66203",
    "lat": 39.0079293,
    "lng": -94.7156613,
    "link": "https://harvesters.org/Service-Detail?id=25912&zip=66224&rad=30&type=-1"
  },
  {
    "Type": "FoodBank",
    "Name": "Jesus El Buen Pastor",
    "Phone": "913-707-3518",
    "Address": "3007 Mercier",
    "City": "Kansas City",
    "State": "MO",
    "Zipcode": "64108",
    "lat": 39.073046,
    "lng": -94.59986099999999,
    "link": "https://harvesters.org/Service-Detail?id=25913&zip=66224&rad=30&type=-1"
  },
  {
    "Type": "FoodBank",
    "Name": "First Pentecostal Church",
    "Phone": "913-549-7569",
    "Address": "14800 NW Tiffany Park Road",
    "City": "Kansas City",
    "State": "MO",
    "Zipcode": "64153",
    "lat": 39.2555597,
    "lng": -94.75237410000001,
    "link": "https://harvesters.org/Service-Detail?id=25917&zip=66224&rad=30&type=-1"
  },
  {
    "Type": "FoodBank",
    "Name": "The Rock of KC Church",
    "Phone": "816-243-1400",
    "Address": "12750 N Winan Road",
    "City": "Kansas City",
    "State": "MO",
    "Zipcode": "64163",
    "lat": 39.3240559,
    "lng": -94.6967997,
    "link": "https://harvesters.org/Service-Detail?id=25920&zip=64129&rad=30&type=-1"
  },
  {
    "Type": "FoodBank",
    "Name": "Five Loaves Food Ministry",
    "Phone": "913-299-8335",
    "Address": "8300 State Avenue",
    "City": "Kansas City",
    "State": "KS",
    "Zipcode": "66112",
    "lat": 39.1169674,
    "lng": -94.77154519999999,
    "link": "https://harvesters.org/Service-Detail?id=25922&zip=66224&rad=30&type=-1"
  },
  {
    "Type": "FoodBank",
    "Name": "Abundant Life Food Pantry",
    "Phone": "816-554-8181",
    "Address": "1300 SW Jefferson",
    "City": "Lees Summit",
    "State": "MO",
    "Zipcode": "64081",
    "lat": 38.8978724,
    "lng": -94.3776928,
    "link": "https://harvesters.org/Service-Detail?id=25923&zip=66224&rad=30&type=-1"
  },
  {
    "Type": "FoodBank",
    "Name": "Santa Fe Waystation",
    "Phone": "913-722-2310",
    "Address": "6422 Santa Fe Drive",
    "City": "Overland Park",
    "State": "KS",
    "Zipcode": "66202",
    "lat": 39.0117923,
    "lng": -94.67284939999999,
    "link": "https://harvesters.org/Service-Detail?id=25925&zip=66224&rad=30&type=-1"
  },
  {
    "Type": "FoodBank",
    "Name": "Grace Episcopal Church",
    "Phone": "816-781-6262",
    "Address": "520 S 291 Highway",
    "City": "Liberty",
    "State": "MO",
    "Zipcode": "64068",
    "lat": 39.2402628,
    "lng": -94.4400163,
    "link": "https://harvesters.org/Service-Detail?id=25926&zip=64129&rad=30&type=-1"
  },
  {
    "Type": "FoodBank",
    "Name": "First Baptist Church Peculiar",
    "Phone": "816-779-5512",
    "Address": "216 E Broadway",
    "City": "Peculiar",
    "State": "MO",
    "Zipcode": "64078",
    "lat": 38.7186998,
    "lng": -94.45833329999999,
    "link": "https://harvesters.org/Service-Detail?id=25928&zip=66224&rad=30&type=-1"
  },
  {
    "Type": "FoodBank",
    "Name": "Coldwater",
    "Phone": "816-786-0758",
    "Address": "1101 NE Independence Avenue",
    "City": "Lee&apos;s Summit",
    "State": "MO",
    "Zipcode": "64086",
    "lat": 38.9321692,
    "lng": -94.3641349,
    "link": "https://harvesters.org/Service-Detail?id=25930&zip=66224&rad=30&type=-1"
  },
  {
    "Type": "FoodBank",
    "Name": "Heritage Baptist Church",
    "Phone": "785-887-2200",
    "Address": "1781 East 800th Road",
    "City": "Lawrence",
    "State": "KS",
    "Zipcode": "66049",
    "lat": 38.9993027,
    "lng": -95.3547756,
    "link": "https://harvesters.org/Service-Detail?id=25933&zip=66051&rad=30&type=-1"
  },
  {
    "Type": "FoodBank",
    "Name": "New Creations of Faith",
    "Phone": "913-281-1578",
    "Address": "1060 Freeman Avenue",
    "City": "Kansas City",
    "State": "KS",
    "Zipcode": "66102",
    "lat": 39.121618,
    "lng": -94.6379726,
    "link": "https://harvesters.org/Service-Detail?id=25934&zip=66224&rad=30&type=-1"
  },
  {
    "Type": "FoodBank",
    "Name": "Wellsville Family Worship",
    "Phone": "785-883-2533",
    "Address": "601 Locust Street",
    "City": "Wellsville",
    "State": "KS",
    "Zipcode": "66092",
    "lat": 38.7182217,
    "lng": -95.08040520000002,
    "link": "https://harvesters.org/Service-Detail?id=25936&zip=66051&rad=30&type=-1"
  },
  {
    "Type": "FoodBank",
    "Name": "Stony Point Christian Church",
    "Phone": "913-299-4821",
    "Address": "149 S 78th Street",
    "City": "Kansas City",
    "State": "KS",
    "Zipcode": "66111",
    "lat": 39.0948651,
    "lng": -94.7602197,
    "link": "https://harvesters.org/Service-Detail?id=25942&zip=66224&rad=30&type=-1"
  },
  {
    "Type": "FoodBank",
    "Name": "Brooking Heights Baptist",
    "Phone": "816-356-3007",
    "Address": "9500 E 53rd Street",
    "City": "Raytown",
    "State": "MO",
    "Zipcode": "64133",
    "lat": 39.0271297,
    "lng": -94.4677054,
    "link": "https://harvesters.org/Service-Detail?id=25947&zip=66224&rad=30&type=-1"
  },
  {
    "Type": "FoodBank",
    "Name": "First Baptist Church",
    "Phone": "785-843-0020",
    "Address": "1330 Kasold Drive",
    "City": "Lawrence",
    "State": "KS",
    "Zipcode": "66049",
    "lat": 38.9600713,
    "lng": -95.27749779999999,
    "link": "https://harvesters.org/Service-Detail?id=25949&zip=66051&rad=30&type=-1"
  },
  {
    "Type": "FoodBank",
    "Name": "Cornerstone Southern Baptist",
    "Phone": "785-843-0442",
    "Address": "802 W 22nd Terrace",
    "City": "Lawrence",
    "State": "KS",
    "Zipcode": "66046",
    "lat": 38.9440437,
    "lng": -95.2443289,
    "link": "https://harvesters.org/Service-Detail?id=25951&zip=66051&rad=30&type=-1"
  },
  {
    "Type": "FoodBank",
    "Name": "ECKAN - Douglas County",
    "Phone": "785-841-3357",
    "Address": "2518 Ridge Court Suite 104",
    "City": "Lawrence",
    "State": "KS",
    "Zipcode": "66046",
    "lat": 38.9378301,
    "lng": -95.25771119999999,
    "link": "https://harvesters.org/Service-Detail?id=25972&zip=66051&rad=30&type=-1"
  },
  {
    "Type": "FoodBank",
    "Name": "Oakland Heights",
    "Phone": "816-405-8967",
    "Address": "2409 Michigan",
    "City": "Kansas City",
    "State": "MO",
    "Zipcode": "64127",
    "lat": 39.0830589,
    "lng": -94.5600449,
    "link": "https://harvesters.org/Service-Detail?id=25973&zip=66224&rad=30&type=-1"
  },
  {
    "Type": "FoodBank",
    "Name": "Second Baptist Church",
    "Phone": "816-461-6020",
    "Address": "116 E White Oak",
    "City": "Independence",
    "State": "MO",
    "Zipcode": "64050",
    "lat": 39.0947112,
    "lng": -94.41471250000001,
    "link": "https://harvesters.org/Service-Detail?id=25974&zip=66224&rad=30&type=-1"
  },
  {
    "Type": "FoodBank",
    "Name": "Catholic Charities",
    "Phone": "785-856-2694",
    "Address": "1525 West 6th Suite A &amp; B",
    "City": "Lawrence",
    "State": "KS",
    "Zipcode": "66044",
    "lat": 38.9727818,
    "lng": -95.25370579999999,
    "link": "https://harvesters.org/Service-Detail?id=25976&zip=66051&rad=30&type=-1"
  },
  {
    "Type": "FoodBank",
    "Name": "Saint Michael's Episcopal",
    "Phone": "816-373-5333",
    "Address": "4000 Lee&apos;s Summit Road",
    "City": "Independence",
    "State": "MO",
    "Zipcode": "64050",
    "lat": 39.0902442,
    "lng": -94.3900793,
    "link": "https://harvesters.org/Service-Detail?id=25978&zip=66224&rad=30&type=-1"
  },
  {
    "Type": "FoodBank",
    "Name": "Palestine Senior Center",
    "Phone": "816-921-1963",
    "Address": "3325 Prospect",
    "City": "Kansas City",
    "State": "MO",
    "Zipcode": "64128",
    "lat": 39.0648532,
    "lng": -94.5525303,
    "link": "https://harvesters.org/Service-Detail?id=25979&zip=66224&rad=30&type=-1"
  },
  {
    "Type": "FoodBank",
    "Name": "First Assembly of God",
    "Phone": "816-373-8998",
    "Address": "3711 S Whitney Avenue",
    "City": "Independence",
    "State": "MO",
    "Zipcode": "64055",
    "lat": 39.052252,
    "lng": -94.36763499999999,
    "link": "https://harvesters.org/Service-Detail?id=25981&zip=66224&rad=30&type=-1"
  },
  {
    "Type": "FoodBank",
    "Name": "Beacon Heights Comm. of Christ",
    "Phone": "816-796-7033",
    "Address": "19402 E Holke Road",
    "City": "Independence",
    "State": "MO",
    "Zipcode": "64057",
    "lat": 39.0775085,
    "lng": -94.35101259999999,
    "link": "https://harvesters.org/Service-Detail?id=25982&zip=66224&rad=30&type=-1"
  },
  {
    "Type": "FoodBank",
    "Name": "First Baptist Church",
    "Phone": "816-429-7088",
    "Address": "336 N Gallatin Street",
    "City": "Liberty",
    "State": "MO",
    "Zipcode": "64068",
    "lat": 39.2497744,
    "lng": -94.4215447,
    "link": "https://harvesters.org/Service-Detail?id=25983&zip=64129&rad=30&type=-1"
  },
  {
    "Type": "FoodBank",
    "Name": "Kearney Enrichment Council",
    "Phone": "816-903-4763",
    "Address": "113 E Washington Street",
    "City": "Kearney",
    "State": "MO",
    "Zipcode": "64060",
    "lat": 39.3727171,
    "lng": -94.36167170000002,
    "link": "https://harvesters.org/Service-Detail?id=25984&zip=64129&rad=30&type=-1"
  },
  {
    "Type": "FoodBank",
    "Name": "Immanuel Lutheran Church",
    "Phone": "913-638-3894",
    "Address": "3232 Metropolitan Avenue",
    "City": "Kansas City",
    "State": "KS",
    "Zipcode": "66106",
    "lat": 39.0735637,
    "lng": -94.6664268,
    "link": "https://harvesters.org/Service-Detail?id=25985&zip=66224&rad=30&type=-1"
  },
  {
    "Type": "FoodBank",
    "Name": "Life Connection Church",
    "Phone": "816-353-4445",
    "Address": "3883 Blue Ridge Boulevard",
    "City": "Independence",
    "State": "MO",
    "Zipcode": "64052",
    "lat": 39.051792,
    "lng": -94.441705,
    "link": "https://harvesters.org/Service-Detail?id=25986&zip=66224&rad=30&type=-1"
  },
  {
    "Type": "FoodBank",
    "Name": "Leawood Presbyterian Church",
    "Phone": "913-649-1144",
    "Address": "2715 W 83rd Street",
    "City": "Leawood",
    "State": "KS",
    "Zipcode": "66206",
    "lat": 38.9784505,
    "lng": -94.6176382,
    "link": "https://harvesters.org/Service-Detail?id=25987&zip=66224&rad=10&type=1"
  },
  {
    "Type": "FoodBank",
    "Name": "Fairmount Community Center",
    "Phone": "816-254-8334",
    "Address": "217 S Cedar Avenue",
    "City": "Independence",
    "State": "MO",
    "Zipcode": "64052",
    "lat": 39.1074589,
    "lng": -94.4574887,
    "link": "https://harvesters.org/Service-Detail?id=25988&zip=66224&rad=30&type=-1"
  },
  {
    "Type": "FoodBank",
    "Name": "The Reola Grant Center",
    "Phone": "913-948-4040",
    "Address": "5010 Leavenworth Road",
    "City": "Kansas City",
    "State": "KS",
    "Zipcode": "66104",
    "lat": 39.1432408,
    "lng": -94.6953657,
    "link": "https://harvesters.org/Service-Detail?id=25989&zip=66224&rad=30&type=-1"
  },
  {
    "Type": "FoodBank",
    "Name": "The PEER Center",
    "Phone": "816-404-6384",
    "Address": "800 E 21st Street",
    "City": "Kansas City",
    "State": "MO",
    "Zipcode": "64108",
    "lat": 39.0876932,
    "lng": -94.5739286,
    "link": "https://harvesters.org/Service-Detail?id=25990&zip=66224&rad=30&type=-1"
  },
  {
    "Type": "FoodBank",
    "Name": "Hope Faith Ministries",
    "Phone": "816-471-4673",
    "Address": "705 Virginia Avenue",
    "City": "Kansas City",
    "State": "MO",
    "Zipcode": "64106",
    "lat": 39.1047798,
    "lng": -94.5657471,
    "link": "https://harvesters.org/Service-Detail?id=25991&zip=66224&rad=30&type=-1"
  },
  {
    "Type": "FoodBank",
    "Name": "Cathedral Social Services",
    "Phone": "816-842-0416",
    "Address": "416 W 12th Street",
    "City": "Kansas City",
    "State": "MO",
    "Zipcode": "64105",
    "lat": 39.1003142,
    "lng": -94.58906569999999,
    "link": "https://harvesters.org/Service-Detail?id=25993&zip=66224&rad=30&type=-1"
  },
  {
    "Type": "FoodBank",
    "Name": "Gathering Table SAWC",
    "Phone": "785-643-7697",
    "Address": "5009 Independence Avenue",
    "City": "Kansas City",
    "State": "MO",
    "Zipcode": "64124",
    "lat": 39.105106,
    "lng": -94.52289909999999,
    "link": "https://harvesters.org/Service-Detail?id=25994&zip=66224&rad=30&type=-1"
  },
  {
    "Type": "FoodBank",
    "Name": "Cross Point Assembly of God",
    "Phone": "913-294-2429",
    "Address": "1016 N Pearl Street",
    "City": "Paola",
    "State": "KS",
    "Zipcode": "66071",
    "lat": 38.5853756,
    "lng": -94.8739944,
    "link": "https://harvesters.org/Service-Detail?id=25995&zip=66224&rad=30&type=-1"
  },
  {
    "Type": "FoodBank",
    "Name": "Kansas City Community Kitchen",
    "Phone": "816-561-8920 ",
    "Address": "750 Paseo Blvd",
    "City": "Kansas City",
    "State": "MO",
    "Zipcode": "64106",
    "lat": 39.1041594,
    "lng": -94.5641155,
    "link": "https://harvesters.org/Service-Detail?id=25996&zip=66224&rad=30&type=-1"
  },
  {
    "Type": "FoodBank",
    "Name": "CSL - Stone Church",
    "Phone": "816-254-4100",
    "Address": "1012 W Lexington",
    "City": "Independence",
    "State": "MO",
    "Zipcode": "64050",
    "lat": 39.0916857,
    "lng": -94.4281367,
    "link": "https://harvesters.org/Service-Detail?id=25997&zip=66224&rad=30&type=-1"
  },
  {
    "Type": "FoodBank",
    "Name": "Linwood United Church",
    "Phone": "816-923-3213",
    "Address": "3151 Olive Street",
    "City": "Kansas City",
    "State": "MO",
    "Zipcode": "64109",
    "lat": 39.0684957,
    "lng": -94.5549478,
    "link": "https://harvesters.org/Service-Detail?id=25998&zip=66224&rad=30&type=-1"
  },
  {
    "Type": "FoodBank",
    "Name": "Bishop Sullivan - Troost",
    "Phone": "816-561-8515",
    "Address": "3936 Troost Avenue",
    "City": "Kansas City",
    "State": "MO",
    "Zipcode": "64110",
    "lat": 39.0548607,
    "lng": -94.57242719999999,
    "link": "https://harvesters.org/Service-Detail?id=25999&zip=66224&rad=30&type=-1"
  },
  {
    "Type": "FoodBank",
    "Name": "Sherwood Center",
    "Phone": "816-381-9661",
    "Address": "7938 Chestnut Avenue",
    "City": "Kansas City",
    "State": "MO",
    "Zipcode": "64132",
    "lat": 38.9820217,
    "lng": -94.55563269999999,
    "link": "https://harvesters.org/Service-Detail?id=26000&zip=66224&rad=30&type=-1"
  },
  {
    "Type": "FoodBank",
    "Name": "Downtown Outreach, Inc.",
    "Phone": "816-842-0975",
    "Address": "1307 Holmes Street",
    "City": "Kansas City",
    "State": "MO",
    "Zipcode": "64106",
    "lat": 39.098133,
    "lng": -94.57481539999999,
    "link": "https://harvesters.org/Service-Detail?id=26001&zip=66224&rad=30&type=-1"
  },
  {
    "Type": "FoodBank",
    "Name": "True Light Family Resource",
    "Phone": "816-561-1700",
    "Address": "712 E 31st Street",
    "City": "Kansas City",
    "State": "MO",
    "Zipcode": "64109",
    "lat": 39.070809,
    "lng": -94.5757828,
    "link": "https://harvesters.org/Service-Detail?id=26002&zip=66224&rad=30&type=-1"
  },
  {
    "Type": "FoodBank",
    "Name": "New Seasons Christian Church - Please note that no meals will be served for the rest of March.",
    "Phone": "913-321-2038",
    "Address": "1907 N 3rd Street",
    "City": "Kansas City",
    "State": "KS",
    "Zipcode": "66101",
    "lat": 39.1246167,
    "lng": -94.6155406,
    "link": "https://harvesters.org/Service-Detail?id=26003&zip=66224&rad=30&type=-1"
  },
  {
    "Type": "FoodBank",
    "Name": "Uplift Organization",
    "Phone": "816-241-0060",
    "Address": "1516 Prospect Avenue",
    "City": "Kansas City",
    "State": "MO",
    "Zipcode": "64127",
    "lat": 39.0940711,
    "lng": -94.55200649999999,
    "link": "https://harvesters.org/Service-Detail?id=26004&zip=66224&rad=30&type=-1"
  },
  {
    "Type": "FoodBank",
    "Name": "Swope Parkway Church of Christ - Please note this site is closed until April 1.",
    "Phone": "816-444-9511",
    "Address": "5620 Swope Parkway",
    "City": "Kansas City",
    "State": "MO",
    "Zipcode": "64130",
    "lat": 39.0238375,
    "lng": -94.5425795,
    "link": "https://harvesters.org/Service-Detail?id=26005&zip=66224&rad=30&type=-1"
  },
  {
    "Type": "FoodBank",
    "Name": "International Youth Fellowship",
    "Phone": "816-437-5440",
    "Address": "7900 Jarboe Street",
    "City": "Kansas City",
    "State": "MO",
    "Zipcode": "64114",
    "lat": 38.9849205,
    "lng": -94.6030309,
    "link": "https://harvesters.org/Service-Detail?id=26006&zip=66224&rad=30&type=-1"
  },
  {
    "Type": "FoodBank",
    "Name": "Independence Boulevard",
    "Phone": "816-231-0016 ",
    "Address": "606 Gladstone Boulevard",
    "City": "Kansas City",
    "State": "MO",
    "Zipcode": "64124",
    "lat": 39.1058652,
    "lng": -94.54624539999999,
    "link": "https://harvesters.org/Service-Detail?id=26007&zip=66224&rad=30&type=-1"
  },
  {
    "Type": "FoodBank",
    "Name": "Salvation Army Eastside",
    "Phone": "816-483-8484",
    "Address": "3013 E 9th Street Post Office Box 240049",
    "City": "Kansas City",
    "State": "MO",
    "Zipcode": "64124",
    "lat": 39.1021131,
    "lng": -94.5461217,
    "link": "https://harvesters.org/Service-Detail?id=26008&zip=66224&rad=30&type=-1"
  },
  {
    "Type": "FoodBank",
    "Name": "Lazarus Ministries",
    "Phone": "816-531-3138",
    "Address": "3151 Olive Street",
    "City": "Kansas City",
    "State": "MO",
    "Zipcode": "64109",
    "lat": 39.0684957,
    "lng": -94.5549478,
    "link": "https://harvesters.org/Service-Detail?id=26009&zip=66224&rad=30&type=-1"
  },
  {
    "Type": "FoodBank",
    "Name": "Stilwell Baptist Caring",
    "Phone": "913-897-2261",
    "Address": "19950 Broadmoor Lane",
    "City": "Stilwell",
    "State": "KS",
    "Zipcode": "66085",
    "lat": 38.7665865,
    "lng": -94.66568550000001,
    "link": "https://harvesters.org/Service-Detail?id=26010&zip=66224&rad=30&type=-1"
  },
  {
    "Type": "FoodBank",
    "Name": "Christ First Ministries",
    "Phone": "913-400-1188",
    "Address": "229 N Neconi Avenue",
    "City": "Bonner Springs",
    "State": "KS",
    "Zipcode": "66012",
    "lat": 39.0600108,
    "lng": -94.8865517,
    "link": "https://harvesters.org/Service-Detail?id=26011&zip=66224&rad=30&type=-1"
  },
  {
    "Type": "FoodBank",
    "Name": "Westside Community Action",
    "Phone": "816-842-1298",
    "Address": "2130 B Jefferson Street",
    "City": "Kansas City",
    "State": "MO",
    "Zipcode": "64108",
    "lat": 39.0863814,
    "lng": -94.5928759,
    "link": "https://harvesters.org/Service-Detail?id=26013&zip=66224&rad=30&type=-1"
  },
  {
    "Type": "FoodBank",
    "Name": "Salvation Army",
    "Phone": "785-843-4188",
    "Address": "946 New Hampshire Street",
    "City": "Lawrence",
    "State": "KS",
    "Zipcode": "66044",
    "lat": 38.9659162,
    "lng": -95.2344167,
    "link": "https://harvesters.org/Service-Detail?id=26014&zip=66051&rad=30&type=-1"
  },
  {
    "Type": "FoodBank",
    "Name": "Freedom Fire Urban Ministries",
    "Phone": "816-241-7070",
    "Address": "2111 E 13th Street",
    "City": "Kansas City",
    "State": "MO",
    "Zipcode": "64127",
    "lat": 39.0975396,
    "lng": -94.5567609,
    "link": "https://harvesters.org/Service-Detail?id=26016&zip=66224&rad=30&type=-1"
  },
  {
    "Type": "FoodBank",
    "Name": "Hope City",
    "Phone": "816-241-9931",
    "Address": "5101 E 24th Street",
    "City": "Kansas City",
    "State": "MO",
    "Zipcode": "64127",
    "lat": 39.0816265,
    "lng": -94.5232472,
    "link": "https://harvesters.org/Service-Detail?id=26022&zip=66224&rad=30&type=-1"
  },
  {
    "Type": "FoodBank",
    "Name": "Lord Of Love Lutheran Church",
    "Phone": "816-331-5465",
    "Address": "8306 E 171st Street",
    "City": "Belton",
    "State": "MO",
    "Zipcode": "64012",
    "lat": 38.8133742,
    "lng": -94.49579109999999,
    "link": "https://harvesters.org/Service-Detail?id=26023&zip=66224&rad=30&type=-1"
  },
  {
    "Type": "FoodBank",
    "Name": "Church On The Rock Outreach",
    "Phone": "816-246-7625 ",
    "Address": "1700 SW Market Street",
    "City": "Lees Summit",
    "State": "MO",
    "Zipcode": "64082",
    "lat": 38.8885002,
    "lng": -94.37534579999999,
    "link": "https://harvesters.org/Service-Detail?id=26024&zip=66224&rad=30&type=-1"
  },
  {
    "Type": "FoodBank",
    "Name": "Serve the World",
    "Phone": "816-942-1414",
    "Address": "1414 E 103rd Street",
    "City": "Kansas City",
    "State": "MO",
    "Zipcode": "64131",
    "lat": 38.9411247,
    "lng": -94.5727002,
    "link": "https://harvesters.org/Service-Detail?id=26025&zip=66224&rad=30&type=-1"
  },
  {
    "Type": "FoodBank",
    "Name": "Fishes-N-Loaves",
    "Phone": "816-322-1177",
    "Address": "1315 E Walnut Avenue",
    "City": "Raymore",
    "State": "MO",
    "Zipcode": "64083",
    "lat": 38.801625,
    "lng": -94.4261269,
    "link": "https://harvesters.org/Service-Detail?id=26026&zip=66224&rad=30&type=-1"
  },
  {
    "Type": "FoodBank",
    "Name": "Kingsway Ministries",
    "Phone": "816-921-7016",
    "Address": "4920 E 31st Street",
    "City": "Kansas City",
    "State": "MO",
    "Zipcode": "64128",
    "lat": 39.0692307,
    "lng": -94.52662989999999,
    "link": "https://harvesters.org/Service-Detail?id=26027&zip=66224&rad=30&type=-1"
  },
  {
    "Type": "FoodBank",
    "Name": "Cornerstone Church of Blue Springs",
    "Phone": "816-896-6101",
    "Address": "301 SE AA Highway",
    "City": "Blue Springs",
    "State": "MO",
    "Zipcode": "64014",
    "lat": 39.0094435,
    "lng": -94.2625781,
    "link": "https://harvesters.org/Service-Detail?id=26029&zip=66224&rad=30&type=-1"
  },
  {
    "Type": "FoodBank",
    "Name": "Cross Point Assembly of God",
    "Phone": "913-294-2429",
    "Address": "1016 N Pearl Street",
    "City": "Paola",
    "State": "KS",
    "Zipcode": "66071",
    "lat": 38.5853756,
    "lng": -94.8739944,
    "link": "https://harvesters.org/Service-Detail?id=26030&zip=66224&rad=30&type=-1"
  },
  {
    "Type": "FoodBank",
    "Name": "Stilwell Baptist Caring",
    "Phone": "913-897-2261",
    "Address": "19950 Broadmoor Lane",
    "City": "Stilwell",
    "State": "KS",
    "Zipcode": "66085",
    "lat": 38.7665865,
    "lng": -94.66568550000001,
    "link": "https://harvesters.org/Service-Detail?id=26031&zip=66224&rad=30&type=-1"
  },
  {
    "Type": "FoodBank",
    "Name": "Colonial Presbyterian Church",
    "Phone": "816-942-3272",
    "Address": "9500 Wornall Road",
    "City": "Kansas City",
    "State": "MO",
    "Zipcode": "64114",
    "lat": 38.9554723,
    "lng": -94.59686769999999,
    "link": "https://harvesters.org/Service-Detail?id=26034&zip=66224&rad=30&type=-1"
  },
  {
    "Type": "FoodBank",
    "Name": "MLM - Central",
    "Phone": "816-285-3154",
    "Address": "3031 Holmes Street",
    "City": "Kansas City",
    "State": "MO",
    "Zipcode": "64109",
    "lat": 39.0713403,
    "lng": -94.57627699999999,
    "link": "https://harvesters.org/Service-Detail?id=26035&zip=66224&rad=30&type=-1"
  },
  {
    "Type": "FoodBank",
    "Name": "Christ United Methodist Church",
    "Phone": "816-461-1101",
    "Address": "14506 E 39th Street",
    "City": "Independence",
    "State": "MO",
    "Zipcode": "64055",
    "lat": 39.0507317,
    "lng": -94.4080017,
    "link": "https://harvesters.org/Service-Detail?id=26036&zip=66224&rad=30&type=-1"
  },
  {
    "Type": "FoodBank",
    "Name": "Boone Tabernacle Community",
    "Phone": "816-471-0955",
    "Address": "1317 E 12th Street",
    "City": "Kansas City",
    "State": "MO",
    "Zipcode": "64106",
    "lat": 39.0991949,
    "lng": -94.56635159999999,
    "link": "https://harvesters.org/Service-Detail?id=26037&zip=66224&rad=30&type=-1"
  },
  {
    "Type": "FoodBank",
    "Name": "Heart of God Fellowship",
    "Phone": "913-927-0322",
    "Address": "3720 N Buckner Tarsney Road",
    "City": "Buckner",
    "State": "MO",
    "Zipcode": "64016",
    "lat": 39.165292,
    "lng": -94.19713,
    "link": "https://harvesters.org/Service-Detail?id=26038&zip=66224&rad=30&type=-1"
  },
  {
    "Type": "FoodBank",
    "Name": "Belton Assembly of God",
    "Phone": "816-322-1133",
    "Address": "613 E North Avenue",
    "City": "Belton",
    "State": "MO",
    "Zipcode": "64012",
    "lat": 38.8134759,
    "lng": -94.5238512,
    "link": "https://harvesters.org/Service-Detail?id=26039&zip=66224&rad=30&type=-1"
  },
  {
    "Type": "FoodBank",
    "Name": "New Life Assembly",
    "Phone": "816-690-3514",
    "Address": "801 SW 1st Street",
    "City": "Oak Grove",
    "State": "MO",
    "Zipcode": "64075",
    "lat": 39.0153215,
    "lng": -94.1430213,
    "link": "https://harvesters.org/Service-Detail?id=26040&zip=66224&rad=30&type=-1"
  },
  {
    "Type": "FoodBank",
    "Name": "Elm Springs Baptist Church",
    "Phone": "816-258-2713",
    "Address": "570 NW 1601 Road",
    "City": "Kingsville",
    "State": "MO",
    "Zipcode": "64061",
    "lat": 38.8560193,
    "lng": -94.04334449999999,
    "link": "https://harvesters.org/Service-Detail?id=26041&zip=66224&rad=30&type=-1"
  },
  {
    "Type": "FoodBank",
    "Name": "Full Joy Ministries Church",
    "Phone": "913-281-8995",
    "Address": "906 N 17th Street",
    "City": "Kansas City",
    "State": "KS",
    "Zipcode": "66102",
    "lat": 39.1149547,
    "lng": -94.6483849,
    "link": "https://harvesters.org/Service-Detail?id=26043&zip=66224&rad=30&type=-1"
  },
  {
    "Type": "FoodBank",
    "Name": "Calvary Chapel Church of God in Christ",
    "Phone": "816-877-1992",
    "Address": "5101 Bristol Avenue",
    "City": "Kansas City",
    "State": "MO",
    "Zipcode": "64129",
    "lat": 39.0323655,
    "lng": -94.5017884,
    "link": "https://harvesters.org/Service-Detail?id=26046&zip=66224&rad=30&type=-1"
  },
  {
    "Type": "FoodBank",
    "Name": "Catholic Charities",
    "Phone": "785-856-2694",
    "Address": "1330 Kasold",
    "City": "Lawrence",
    "State": "KS",
    "Zipcode": "66044",
    "lat": 38.9600713,
    "lng": -95.27749779999999,
    "link": "https://harvesters.org/Service-Detail?id=26048&zip=66051&rad=30&type=-1"
  },
  {
    "Type": "FoodBank",
    "Name": "Eudora United Methodist Church",
    "Phone": "785-542-5839 ",
    "Address": "2084 N 1300 Rd.",
    "City": "Eudora",
    "State": "KS",
    "Zipcode": "66025",
    "lat": 38.929262,
    "lng": -95.11526699999999,
    "link": "https://harvesters.org/Service-Detail?id=26052&zip=66224&rad=30&type=-1"
  },
  {
    "Type": "FoodBank",
    "Name": "Englewood Assembly of God",
    "Phone": "816-254-8313",
    "Address": "10628 E Winner Road",
    "City": "Independence",
    "State": "MO",
    "Zipcode": "64052",
    "lat": 39.088826,
    "lng": -94.4520996,
    "link": "https://harvesters.org/Service-Detail?id=26053&zip=66224&rad=30&type=-1"
  },
  {
    "Type": "FoodBank",
    "Name": "A. I. M. Food Pantry",
    "Phone": "816-934-1367",
    "Address": "710 W 224 Highway",
    "City": "Wellington",
    "State": "MO",
    "Zipcode": "64097",
    "lat": 39.1317481,
    "lng": -93.99424839999999,
    "link": "https://harvesters.org/Service-Detail?id=26058&zip=64129&rad=30&type=-1"
  },
  {
    "Type": "FoodBank",
    "Name": "Gloria Dei Lutheran Church",
    "Phone": "816-741-3150",
    "Address": "5409 NW 72nd Street",
    "City": "Kansas City",
    "State": "MO",
    "Zipcode": "64151",
    "lat": 39.2243304,
    "lng": -94.64382420000001,
    "link": "https://harvesters.org/Service-Detail?id=26059&zip=66224&rad=30&type=-1"
  },
  {
    "Type": "FoodBank",
    "Name": "Franklin Center Inc.",
    "Phone": "913-213-3250",
    "Address": "1403 Metropolitan Avenue",
    "City": "Kansas City",
    "State": "KS",
    "Zipcode": "66103",
    "lat": 39.072154,
    "lng": -94.644733,
    "link": "https://harvesters.org/Service-Detail?id=26061&zip=66224&rad=30&type=-1"
  },
  {
    "Type": "FoodBank",
    "Name": "Gateway Plaza Townhomes",
    "Phone": "913-321-8096",
    "Address": "1477 N 5th Street",
    "City": "Kansas City",
    "State": "KS",
    "Zipcode": "66101",
    "lat": 39.120334,
    "lng": -94.6211547,
    "link": "https://harvesters.org/Service-Detail?id=26062&zip=66224&rad=30&type=-1"
  },
  {
    "Type": "FoodBank",
    "Name": "East Side Baptist Church",
    "Phone": "816-796-0955",
    "Address": "19901 E 78 Highway",
    "City": "Independence",
    "State": "MO",
    "Zipcode": "64057",
    "lat": 39.0819923,
    "lng": -94.34567100000001,
    "link": "https://harvesters.org/Service-Detail?id=26063&zip=66224&rad=30&type=-1"
  },
  {
    "Type": "FoodBank",
    "Name": "Three Trails Community",
    "Phone": "816-606-7464",
    "Address": "520 E 132nd Terrace",
    "City": "Kansas City",
    "State": "MO",
    "Zipcode": "64145",
    "lat": 38.8875277,
    "lng": -94.58868269999999,
    "link": "https://harvesters.org/Service-Detail?id=26064&zip=66224&rad=30&type=-1"
  },
  {
    "Type": "FoodBank",
    "Name": "First Assembly of God",
    "Phone": "816-630-2460",
    "Address": "1800 W US Highway 69",
    "City": "Excelsior Springs",
    "State": "MO",
    "Zipcode": "64024",
    "lat": 39.34022,
    "lng": -94.252915,
    "link": "https://harvesters.org/Service-Detail?id=26066&zip=64129&rad=30&type=-1"
  },
  {
    "Type": "FoodBank",
    "Name": "Heartland Community Church",
    "Phone": "913-341-5820",
    "Address": "12175 S Strang Line Road",
    "City": "Olathe",
    "State": "KS",
    "Zipcode": "66062",
    "lat": 38.9079408,
    "lng": -94.7728516,
    "link": "https://harvesters.org/Service-Detail?id=26067&zip=66224&rad=30&type=-1"
  },
  {
    "Type": "FoodBank",
    "Name": "Redemption Church",
    "Phone": "913-712-8520",
    "Address": "515 S Ridgeview Road",
    "City": "Olathe",
    "State": "KS",
    "Zipcode": "66061",
    "lat": 38.87576139999999,
    "lng": -94.7977241,
    "link": "https://harvesters.org/Service-Detail?id=26068&zip=66224&rad=30&type=-1"
  },
  {
    "Type": "FoodBank",
    "Name": "Just Food",
    "Phone": "785-856-7030",
    "Address": "1000 East 11th Street",
    "City": "Lawrence",
    "State": "KS",
    "Zipcode": "66046",
    "lat": 38.9649175,
    "lng": -95.2231196,
    "link": "https://harvesters.org/Service-Detail?id=26071&zip=66051&rad=30&type=-1"
  },
  {
    "Type": "FoodBank",
    "Name": "ReNewed Hope Mobile Dist.",
    "Phone": "913-263-2802",
    "Address": "8714 Antioch Road",
    "City": "Overland Park",
    "State": "KS",
    "Zipcode": "66212",
    "lat": 38.9704267,
    "lng": -94.6874284,
    "link": "https://harvesters.org/Service-Detail?id=26073&zip=66224&rad=30&type=-1"
  },
  {
    "Type": "FoodBank",
    "Name": "Forest Grove Baptist Church",
    "Phone": "913-342-7648",
    "Address": "1417 N 9th Street",
    "City": "Kansas City",
    "State": "KS",
    "Zipcode": "66101",
    "lat": 39.1201475,
    "lng": -94.6320813,
    "link": "https://harvesters.org/Service-Detail?id=26074&zip=66224&rad=30&type=-1"
  },
  {
    "Type": "FoodBank",
    "Name": "Park Highland Apartments",
    "Phone": "816-356-2660",
    "Address": "6421 Manchester Avenue",
    "City": "Kansas City",
    "State": "MO",
    "Zipcode": "64133",
    "lat": 39.007221,
    "lng": -94.4944831,
    "link": "https://harvesters.org/Service-Detail?id=26075&zip=66224&rad=30&type=-1"
  },