[
  {
    "Type": "HealthCenter",
    "Name": "Pleasant Hill Medical Center - Cass Regional Medical Center",
    "Phone": "816-540-2111",
    "Address": "1601 N Hwy 7",
    "City": "Pleasant Hill",
    "State": "MO",
    "Zipcode": "64080",
    "lat": 38.8081056,
    "lng": -94.26374229999999,
    "link": "https://findcare.org/details?clinic_id=12046"
  },
  {
    "Type": "HealthCenter",
    "Name": "The Medina Clinic",
    "Phone": "816-214-5548",
    "Address": "13013 Fuller Ave",
    "City": "Grandview",
    "State": "MO",
    "Zipcode": "64030",
    "lat": 38.8869813,
    "lng": -94.5179654,
    "link": "https://findcare.org/details?clinic_id=21278"
  },
  {
    "Type": "HealthCenter",
    "Name": "Planned Parenthood - Comprehensive Health Center",
    "Phone": "913-345-1400",
    "Address": "4401 W 109th St",
    "City": "Overland Park",
    "State": "KS",
    "Zipcode": "66211",
    "lat": 38.9310037,
    "lng": -94.6367454,
    "link": "https://findcare.org/details?clinic_id=21895"
  },
  {
    "Type": "HealthCenter",
    "Name": "Planned Parenthood - Independence Health Center",
    "Phone": "816-252-3800",
    "Address": "815 N Noland Rd",
    "City": "Independence",
    "State": "MO",
    "Zipcode": "64050",
    "lat": 39.0993015,
    "lng": -94.41250219999999,
    "link": "https://findcare.org/details?clinic_id=21904"
  },
  {
    "Type": "HealthCenter",
    "Name": "Planned Parenthood - Northland Center - Gladstone",
    "Phone": "816-453-6000",
    "Address": "2900 NE 60th St",
    "City": "Kansas City",
    "State": "MO",
    "Zipcode": "64119",
    "lat": 39.203417,
    "lng": -94.5451174,
    "link": "https://findcare.org/details?clinic_id=21908"
  },
  {
    "Type": "HealthCenter",
    "Name": "Planned Parenthood - Patty Brous Health Center",
    "Phone": "816-756-2277",
    "Address": "1001 Emanuel Cleaver II Blvd",
    "City": "Kansas City",
    "State": "MO",
    "Zipcode": "64110",
    "lat": 39.041474,
    "lng": -94.573848,
    "link": "https://findcare.org/details?clinic_id=21910"
  },
  {
    "Type": "HealthCenter",
    "Name": "Swope Health Central",
    "Phone": "816-923-5800",
    "Address": "3801 Blue Pkwy",
    "City": "Kansas City",
    "State": "MO",
    "Zipcode": "64130",
    "lat": 39.0350233,
    "lng": -94.5399879,
    "link": "https://findcare.org/details?clinic_id=22740"
  },
  {
    "Type": "HealthCenter",
    "Name": "Swope Health Independence",
    "Phone": "816-599-5201",
    "Address": "11320 E Truman Rd",
    "City": "Independence",
    "State": "MO",
    "Zipcode": "64050",
    "lat": 39.0954123,
    "lng": -94.4433475,
    "link": "https://findcare.org/details?clinic_id=22741"
  },
  {
    "Type": "HealthCenter",
    "Name": "Swope Health Northland",
    "Phone": "816-627-2050",
    "Address": "4443 NW Gateway",
    "City": "Riverside",
    "State": "MO",
    "Zipcode": "64150",
    "lat": 39.17640919999999,
    "lng": -94.6125557,
    "link": "https://findcare.org/details?clinic_id=22743"
  },
  {
    "Type": "HealthCenter",
    "Name": "Swope Mobile",
    "Phone": "816-923-5800",
    "Address": "3801 Blue Pkwy",
    "City": "Kansas City",
    "State": "MO",
    "Zipcode": "64130",
    "lat": 39.0350233,
    "lng": -94.5399879,
    "link": "https://findcare.org/details?clinic_id=22745"
  },
  {
    "Type": "HealthCenter",
    "Name": "Swope Health Wyandotte",
    "Phone": "816-922-7600",
    "Address": "21 North 12th St",
    "City": "Kansas City",
    "State": "KS",
    "Zipcode": "66102",
    "lat": 39.1037787,
    "lng": -94.6393075,
    "link": "https://findcare.org/details?clinic_id=22867"
  },
  {
    "Type": "HealthCenter",
    "Name": "Mercy Health Free Clinic",
    "Phone": "816-763-1666",
    "Address": "9520 James A Reed Rd",
    "City": "Kansas City",
    "State": "MO",
    "Zipcode": "64134",
    "lat": 38.9506124,
    "lng": -94.4947447,
    "link": "https://findcare.org/details?clinic_id=23587"
  },
  {
    "Type": "HealthCenter",
    "Name": "Mercy & Truth Medical Missions Clinic Shawnee",
    "Phone": "913-248-9965",
    "Address": "5817 Neiman Rd",
    "City": "Shawnee",
    "State": "KS",
    "Zipcode": "66203",
    "lat": 39.0232018,
    "lng": -94.7143653,
    "link": "https://findcare.org/details?clinic_id=23731"
  },
  {
    "Type": "HealthCenter",
    "Name": "Mercy & Truth KCK Clinic",
    "Phone": "913-621-0074",
    "Address": "721 N 31st St",
    "City": "Kansas City",
    "State": "KS",
    "Zipcode": "66102",
    "lat": 39.1138562,
    "lng": -94.66372439999999,
    "link": "https://findcare.org/details?clinic_id=23733"
  },
  {
    "Type": "HealthCenter",
    "Name": "J.A. Rogers Family Dental (SURHC)",
    "Phone": "816-231-5746",
    "Address": "6400 East 23rd St",
    "City": "Kansas City",
    "State": "MO",
    "Zipcode": "64129",
    "lat": 39.0819356,
    "lng": -94.48852289999999,
    "link": "https://findcare.org/details?clinic_id=24239"
  },
  {
    "Type": "HealthCenter",
    "Name": "Health Partnership Clinic of Johnson County - Olathe",
    "Phone": "913-648-2266",
    "Address": "407 S Clairborne Rd",
    "City": "Olathe",
    "State": "KS",
    "Zipcode": "66062",
    "lat": 38.8770639,
    "lng": -94.7897922,
    "link": "https://findcare.org/details?clinic_id=26512"
  },
  {
    "Type": "HealthCenter",
    "Name": "Duchesne Clinic - SCL",
    "Phone": "913-321-2626",
    "Address": "636 Tauromee Ave",
    "City": "Kansas City",
    "State": "KS",
    "Zipcode": "66101",
    "lat": 39.1120111,
    "lng": -94.62592839999999,
    "link": "https://findcare.org/details?clinic_id=27761"
  },
  {
    "Type": "HealthCenter",
    "Name": "Saint Vincent Clinic - SCL",
    "Phone": "913-651-8860",
    "Address": "818 North 7th St",
    "City": "Leavenworth",
    "State": "KS",
    "Zipcode": "66048",
    "lat": 39.3252537,
    "lng": -94.91979940000002,
    "link": "https://findcare.org/details?clinic_id=27766"
  },
  {
    "Type": "HealthCenter",
    "Name": "Cass Regional Medical Center - Peculiar Medical Clinic",
    "Phone": "816-779-1100",
    "Address": "300 S Main St",
    "City": "Peculiar",
    "State": "MO",
    "Zipcode": "64078",
    "lat": 38.7138944,
    "lng": -94.46118899999999,
    "link": "https://findcare.org/details?clinic_id=28458"
  },
  {
    "Type": "HealthCenter",
    "Name": "Clay County Family Medicine & Dental Services (SURHC)",
    "Phone": "816-413-0662",
    "Address": "800 Haines Dr",
    "City": "Liberty",
    "State": "MO",
    "Zipcode": "64068",
    "lat": 39.2569744,
    "lng": -94.451617,
    "link": "https://findcare.org/details?clinic_id=28498"
  },
  {
    "Type": "HealthCenter",
    "Name": "Cabot Westside Medical and Dental (SURHC)",
    "Phone": "816-471-0900",
    "Address": "2121 Summit St",
    "City": "Kansas City",
    "State": "MO",
    "Zipcode": "64124",
    "lat": 39.0872568,
    "lng": -94.5934091,
    "link": "https://findcare.org/details?clinic_id=29262"
  },
  {
    "Type": "HealthCenter",
    "Name": "Swope Health Belton",
    "Phone": "816-599-5170",
    "Address": "206 E North Ave",
    "City": "Belton",
    "State": "MO",
    "Zipcode": "64012",
    "lat": 38.8145633,
    "lng": -94.53165659999999,
    "link": "https://findcare.org/details?clinic_id=29452"
  },
  {
    "Type": "HealthCenter",
    "Name": "Swope Health East",
    "Phone": "816-922-1000",
    "Address": "17844 E 23rd St S",
    "City": "Independence",
    "State": "MO",
    "Zipcode": "64057",
    "lat": 39.0792218,
    "lng": -94.3712979,
    "link": "https://findcare.org/details?clinic_id=29453"
  },
  {
    "Type": "HealthCenter",
    "Name": "Kansas City Missouri Health Department",
    "Phone": "816-513-6128",
    "Address": "2400 Troost Avenue",
    "City": "Kansas City",
    "State": "MO",
    "Zipcode": "64108",
    "lat": 39.0833277,
    "lng": -94.57134909999999,
    "link": "https://findcare.org/details?clinic_id=30245"
  },
  {
    "Type": "HealthCenter",
    "Name": "Platte County Health Department - Parkville",
    "Phone": "816-587-5998",
    "Address": "1201 East St",
    "City": "Parkville",
    "State": "MO",
    "Zipcode": "64152",
    "lat": 39.1953053,
    "lng": -94.68165289999999,
    "link": "https://findcare.org/details?clinic_id=30737"
  },
  {
    "Type": "HealthCenter",
    "Name": "Southwest Boulevard Family Health Care",
    "Phone": "913-722-3100",
    "Address": "340 Southwest Blvd",
    "City": "Kansas City",
    "State": "KS",
    "Zipcode": "66103",
    "lat": 39.0682721,
    "lng": -94.6134431,
    "link": "https://findcare.org/details?clinic_id=31141"
  },
  {
    "Type": "HealthCenter",
    "Name": "Platter County Health Department - Platte City",
    "Phone": "816-858-2412",
    "Address": "212 Marshall Rd",
    "City": "Platte City",
    "State": "MO",
    "Zipcode": "64079",
    "lat": 39.3693386,
    "lng": -94.7778763,
    "link": "https://findcare.org/details?clinic_id=31274"
  },
  {
    "Type": "HealthCenter",
    "Name": "Cass County Dental Clinic",
    "Phone": "816-322-7600",
    "Address": "802 E Walnut",
    "City": "Belton",
    "State": "MO",
    "Zipcode": "64012",
    "lat": 38.8103371,
    "lng": -94.53436239999999,
    "link": "https://findcare.org/details?clinic_id=31338"
  },
  {
    "Type": "HealthCenter",
    "Name": "Live Well Community Health Center - Buckner",
    "Phone": "816-249-1521",
    "Address": "324 S Hudson",
    "City": "Buckner",
    "State": "MO",
    "Zipcode": "64016",
    "lat": 39.1328701,
    "lng": -94.19892259999999,
    "link": "https://findcare.org/details?clinic_id=32830"
  },
  {
    "Type": "HealthCenter",
    "Name": "Northland Prenatal and Pediatric Clinic",
    "Phone": "816-449-8100",
    "Address": "5330 N Oak Trfy",
    "City": "Kansas City",
    "State": "MO",
    "Zipcode": "64118",
    "lat": 39.1912489,
    "lng": -94.5769832,
    "link": "https://findcare.org/details?clinic_id=33410"
  },
  {
    "Type": "HealthCenter",
    "Name": "Health Partnership Clinic of Johnson County - Shawnee Mission for Children",
    "Phone": "913-648-2266",
    "Address": "9119 W 74th St",
    "City": "Overland Park",
    "State": "KS",
    "Zipcode": "66204",
    "lat": 38.9949013,
    "lng": -94.692639,
    "link": "https://findcare.org/details?clinic_id=33411"
  },
  {
    "Type": "HealthCenter",
    "Name": "Kansas City CARE Clinic - Northeast - Joslyn",
    "Phone": "816-753-5144",
    "Address": "4601 Independence AVE",
    "City": "Kansas City",
    "State": "MO",
    "Zipcode": "64124",
    "lat": 39.1053168,
    "lng": -94.527867,
    "link": "https://findcare.org/details?clinic_id=35469"
  },
  {
    "Type": "HealthCenter",
    "Name": "UMKC School of Dentistry Student Clinic",
    "Phone": "816-235-2100",
    "Address": "650 E 25th St",
    "City": "Kansas City",
    "State": "MO",
    "Zipcode": "64108",
    "lat": 39.0820711,
    "lng": -94.577516,
    "link": "https://findcare.org/details?clinic_id=36418"
  },
  {
    "Type": "HealthCenter",
    "Name": "Miles of Smiles Portable Dental Program",
    "Phone": "816-413-9009",
    "Address": "5416 NE Antioch Rd",
    "City": "Kansas City",
    "State": "MO",
    "Zipcode": "64119",
    "lat": 39.1940056,
    "lng": -94.5497403,
    "link": "https://findcare.org/details?clinic_id=36759"
  },
  {
    "Type": "HealthCenter",
    "Name": "New Springs Community Clinic",
    "Phone": "816-246-7474",
    "Address": "1800 NE Independence Ave",
    "City": "Lees Summit",
    "State": "MO",
    "Zipcode": "64086",
    "lat": 38.946318,
    "lng": -94.36670219999999,
    "link": "https://findcare.org/details?clinic_id=36845"
  },
  {
    "Type": "HealthCenter",
    "Name": "Swope Health West",
    "Phone": "913-321-2200",
    "Address": "6013 Leavenworth Rd",
    "City": "Kansas City",
    "State": "KS",
    "Zipcode": "66104",
    "lat": 39.1428056,
    "lng": -94.7187398,
    "link": "https://findcare.org/details?clinic_id=6219"
  },
  {
    "Type": "HealthCenter",
    "Name": "Samuel U. Rodgers Health Center - Downtown (SURHC)",
    "Phone": "816-474-4920",
    "Address": "825 Euclid St",
    "City": "Kansas City",
    "State": "MO",
    "Zipcode": "64124",
    "lat": 39.1041204,
    "lng": -94.5576877,
    "link": "https://findcare.org/details?clinic_id=7245"
  },
  {
    "Type": "HealthCenter",
    "Name": "JayDoc Free Clinic",
    "Phone": "913-735-3447",
    "Address": "300 Southwest Blvd",
    "City": "Kansas City",
    "State": "KS",
    "Zipcode": "66103",
    "lat": 39.0686512,
    "lng": -94.61298099999999,
    "link": "https://findcare.org/details?clinic_id=8868"
  },
  {
    "Type": "HealthCenter",
    "Name": "Kansas City CARE Clinic - Midtown",
    "Phone": "816-753-5144",
    "Address": "3515 Broadway Blvd",
    "City": "Kansas City",
    "State": "MO",
    "Zipcode": "64111",
    "lat": 39.0633588,
    "lng": -94.5903792,
    "link": "https://findcare.org/details?clinic_id=8895"
  },
  {
    "Type": "HealthCenter",
    "Name": "Kansas City CARE Clinic - Prospect",
    "Phone": "816-753-5144",
    "Address": "2340 E Meyer Blvd",
    "City": "Kansas City",
    "State": "MO",
    "Zipcode": "64132",
    "lat": 39.0100512,
    "lng": -94.5573653,
    "link": "https://findcare.org/details?clinic_id=8896"
  }
]